[
    {
        "delta": 0.09009
    },
    {
        "name": "上海上海",
        "lon": 121.48,
        "lat": 31.22,
        "lon_delta": 0,
        "lat_delta": 0
    },
    {
        "name": "上海嘉定",
        "lon": 121.24,
        "lat": 31.4,
        "lon_delta": 0,
        "lat_delta": 0
    },
    {
        "name": "上海宝山",
        "lon": 121.48,
        "lat": 31.41,
        "lon_delta": 0,
        "lat_delta": 0
    },
    {
        "name": "上海川沙",
        "lon": 121.7,
        "lat": 31.19,
        "lon_delta": 0,
        "lat_delta": 0
    },
    {
        "name": "上海南汇",
        "lon": 121.76,
        "lat": 31.05,
        "lon_delta": 0,
        "lat_delta": 0
    },
    {
        "name": "上海奉贤",
        "lon": 121.46,
        "lat": 30.92,
        "lon_delta": 0,
        "lat_delta": 0
    },
    {
        "name": "上海松江",
        "lon": 121.24,
        "lat": 31.0,
        "lon_delta": 0,
        "lat_delta": 0
    },
    {
        "name": "上海金山",
        "lon": 121.16,
        "lat": 30.89,
        "lon_delta": 0,
        "lat_delta": 0
    },
    {
        "name": "上海青浦",
        "lon": 121.1,
        "lat": 31.15,
        "lon_delta": 0,
        "lat_delta": 0
    },
    {
        "name": "上海崇明",
        "lon": 121.4,
        "lat": 31.73,
        "lon_delta": 0,
        "lat_delta": 0
    },
    {
        "name": "云南昆明",
        "lon": 102.73,
        "lat": 25.04,
        "lon_delta": 0,
        "lat_delta": 0
    },
    {
        "name": "云南富民",
        "lon": 102.48,
        "lat": 25.21,
        "lon_delta": 0,
        "lat_delta": 0
    },
    {
        "name": "云南晋宁",
        "lon": 102.58,
        "lat": 24.68,
        "lon_delta": 0,
        "lat_delta": 0
    },
    {
        "name": "云南呈贡",
        "lon": 102.79,
        "lat": 24.9,
        "lon_delta": 0,
        "lat_delta": 0
    },
    {
        "name": "云南安宁",
        "lon": 102.44,
        "lat": 24.95,
        "lon_delta": 0,
        "lat_delta": 0
    },
    {
        "name": "云南昭通",
        "lon": 103.7,
        "lat": 29.32,
        "lon_delta": 0,
        "lat_delta": 0
    },
    {
        "name": "云南永善",
        "lon": 103.63,
        "lat": 28.22,
        "lon_delta": 0,
        "lat_delta": 0
    },
    {
        "name": "云南大关",
        "lon": 103.91,
        "lat": 27.74,
        "lon_delta": 0,
        "lat_delta": 0
    },
    {
        "name": "云南彝良",
        "lon": 104.06,
        "lat": 27.61,
        "lon_delta": 0,
        "lat_delta": 0
    },
    {
        "name": "云南鲁甸",
        "lon": 103.54,
        "lat": 27.21,
        "lon_delta": 0,
        "lat_delta": 0
    },
    {
        "name": "云南绥江",
        "lon": 103.97,
        "lat": 28.58,
        "lon_delta": 0,
        "lat_delta": 0
    },
    {
        "name": "云南盐津",
        "lon": 104.28,
        "lat": 28.08,
        "lon_delta": 0,
        "lat_delta": 0
    },
    {
        "name": "云南威信",
        "lon": 105.05,
        "lat": 27.85,
        "lon_delta": 0,
        "lat_delta": 0
    },
    {
        "name": "云南镇雄",
        "lon": 104.86,
        "lat": 27.42,
        "lon_delta": 0,
        "lat_delta": 0
    },
    {
        "name": "云南巧家",
        "lon": 102.92,
        "lat": 26.9,
        "lon_delta": 0,
        "lat_delta": 0
    },
    {
        "name": "云南永富",
        "lon": 104.38,
        "lat": 28.62,
        "lon_delta": 0,
        "lat_delta": 0
    },
    {
        "name": "云南曲靖",
        "lon": 103.79,
        "lat": 25.51,
        "lon_delta": 0,
        "lat_delta": 0
    },
    {
        "name": "云南宣威",
        "lon": 104.09,
        "lat": 26.24,
        "lon_delta": 0,
        "lat_delta": 0
    },
    {
        "name": "云南富源",
        "lon": 104.24,
        "lat": 25.67,
        "lon_delta": 0,
        "lat_delta": 0
    },
    {
        "name": "云南师宗",
        "lon": 103.97,
        "lat": 24.85,
        "lon_delta": 0,
        "lat_delta": 0
    },
    {
        "name": "云南嵩明",
        "lon": 103.03,
        "lat": 25.35,
        "lon_delta": 0,
        "lat_delta": 0
    },
    {
        "name": "云南会泽",
        "lon": 103.27,
        "lat": 26.41,
        "lon_delta": 0,
        "lat_delta": 0
    },
    {
        "name": "云南沽益",
        "lon": 103.82,
        "lat": 25.62,
        "lon_delta": 0,
        "lat_delta": 0
    },
    {
        "name": "云南罗平",
        "lon": 104.3,
        "lat": 24.88,
        "lon_delta": 0,
        "lat_delta": 0
    },
    {
        "name": "云南陆良",
        "lon": 104.64,
        "lat": 25.04,
        "lon_delta": 0,
        "lat_delta": 0
    },
    {
        "name": "云南宜良",
        "lon": 103.12,
        "lat": 24.9,
        "lon_delta": 0,
        "lat_delta": 0
    },
    {
        "name": "云南马龙",
        "lon": 103.61,
        "lat": 25.41,
        "lon_delta": 0,
        "lat_delta": 0
    },
    {
        "name": "云南路南",
        "lon": 103.24,
        "lat": 24.77,
        "lon_delta": 0,
        "lat_delta": 0
    },
    {
        "name": "云南寻甸",
        "lon": 103.25,
        "lat": 25.56,
        "lon_delta": 0,
        "lat_delta": 0
    },
    {
        "name": "云南玉溪",
        "lon": 102.52,
        "lat": 24.35,
        "lon_delta": 0,
        "lat_delta": 0
    },
    {
        "name": "云南华宁",
        "lon": 102.93,
        "lat": 24.26,
        "lon_delta": 0,
        "lat_delta": 0
    },
    {
        "name": "云南通海",
        "lon": 102.75,
        "lat": 24.09,
        "lon_delta": 0,
        "lat_delta": 0
    },
    {
        "name": "云南澄江",
        "lon": 102.91,
        "lat": 24.68,
        "lon_delta": 0,
        "lat_delta": 0
    },
    {
        "name": "云南江川",
        "lon": 102.73,
        "lat": 24.27,
        "lon_delta": 0,
        "lat_delta": 0
    },
    {
        "name": "云南易门",
        "lon": 102.15,
        "lat": 24.67,
        "lon_delta": 0,
        "lat_delta": 0
    },
    {
        "name": "云南元江",
        "lon": 102.0,
        "lat": 23.59,
        "lon_delta": 0,
        "lat_delta": 0
    },
    {
        "name": "云南新平",
        "lon": 101.98,
        "lat": 24.06,
        "lon_delta": 0,
        "lat_delta": 0
    },
    {
        "name": "云南峨山",
        "lon": 102.38,
        "lat": 24.16,
        "lon_delta": 0,
        "lat_delta": 0
    },
    {
        "name": "云南思茅",
        "lon": 101.0,
        "lat": 22.79,
        "lon_delta": 0,
        "lat_delta": 0
    },
    {
        "name": "云南普洱",
        "lon": 101.03,
        "lat": 23.07,
        "lon_delta": 0,
        "lat_delta": 0
    },
    {
        "name": "云南镇沅",
        "lon": 100.88,
        "lat": 23.9,
        "lon_delta": 0,
        "lat_delta": 0
    },
    {
        "name": "云南景东",
        "lon": 100.82,
        "lat": 24.42,
        "lon_delta": 0,
        "lat_delta": 0
    },
    {
        "name": "云南景谷",
        "lon": 100.71,
        "lat": 23.5,
        "lon_delta": 0,
        "lat_delta": 0
    },
    {
        "name": "云南黑江",
        "lon": 101.71,
        "lat": 23.4,
        "lon_delta": 0,
        "lat_delta": 0
    },
    {
        "name": "云南澜沦",
        "lon": 99.97,
        "lat": 22.55,
        "lon_delta": 0,
        "lat_delta": 0
    },
    {
        "name": "云南西盟",
        "lon": 99.47,
        "lat": 22.73,
        "lon_delta": 0,
        "lat_delta": 0
    },
    {
        "name": "云南江城",
        "lon": 101.88,
        "lat": 22.58,
        "lon_delta": 0,
        "lat_delta": 0
    },
    {
        "name": "云南孟连",
        "lon": 99.55,
        "lat": 22.32,
        "lon_delta": 0,
        "lat_delta": 0
    },
    {
        "name": "云南临沦",
        "lon": 100.09,
        "lat": 23.88,
        "lon_delta": 0,
        "lat_delta": 0
    },
    {
        "name": "云南云县",
        "lon": 100.12,
        "lat": 24.44,
        "lon_delta": 0,
        "lat_delta": 0
    },
    {
        "name": "云南镇康",
        "lon": 99.02,
        "lat": 23.92,
        "lon_delta": 0,
        "lat_delta": 0
    },
    {
        "name": "云南永德",
        "lon": 99.25,
        "lat": 24.03,
        "lon_delta": 0,
        "lat_delta": 0
    },
    {
        "name": "云南凤庆",
        "lon": 99.92,
        "lat": 24.58,
        "lon_delta": 0,
        "lat_delta": 0
    },
    {
        "name": "云南双江",
        "lon": 99.85,
        "lat": 23.45,
        "lon_delta": 0,
        "lat_delta": 0
    },
    {
        "name": "云南沧源",
        "lon": 99.24,
        "lat": 23.15,
        "lon_delta": 0,
        "lat_delta": 0
    },
    {
        "name": "云南耿马",
        "lon": 99.41,
        "lat": 23.56,
        "lon_delta": 0,
        "lat_delta": 0
    },
    {
        "name": "云南保由",
        "lon": 99.18,
        "lat": 25.12,
        "lon_delta": 0,
        "lat_delta": 0
    },
    {
        "name": "云南施甸",
        "lon": 99.15,
        "lat": 24.69,
        "lon_delta": 0,
        "lat_delta": 0
    },
    {
        "name": "云南腾冲",
        "lon": 98.51,
        "lat": 25.01,
        "lon_delta": 0,
        "lat_delta": 0
    },
    {
        "name": "云南昌宁",
        "lon": 99.61,
        "lat": 24.82,
        "lon_delta": 0,
        "lat_delta": 0
    },
    {
        "name": "云南龙陵",
        "lon": 98.7,
        "lat": 24.58,
        "lon_delta": 0,
        "lat_delta": 0
    },
    {
        "name": "云南丽江",
        "lon": 100.25,
        "lat": 26.86,
        "lon_delta": 0,
        "lat_delta": 0
    },
    {
        "name": "云南华坪",
        "lon": 101.24,
        "lat": 26.63,
        "lon_delta": 0,
        "lat_delta": 0
    },
    {
        "name": "云南永胜",
        "lon": 100.76,
        "lat": 26.71,
        "lon_delta": 0,
        "lat_delta": 0
    },
    {
        "name": "云南宁蒗",
        "lon": 100.82,
        "lat": 27.29,
        "lon_delta": 0,
        "lat_delta": 0
    },
    {
        "name": "云南文山",
        "lon": 104.24,
        "lat": 23.37,
        "lon_delta": 0,
        "lat_delta": 0
    },
    {
        "name": "云南广南",
        "lon": 105.09,
        "lat": 24.05,
        "lon_delta": 0,
        "lat_delta": 0
    },
    {
        "name": "云南西畴",
        "lon": 104.68,
        "lat": 23.42,
        "lon_delta": 0,
        "lat_delta": 0
    },
    {
        "name": "云南麻栗坡",
        "lon": 104.71,
        "lat": 23.12,
        "lon_delta": 0,
        "lat_delta": 0
    },
    {
        "name": "云南马关",
        "lon": 104.4,
        "lat": 23.01,
        "lon_delta": 0,
        "lat_delta": 0
    },
    {
        "name": "云南丘北",
        "lon": 104.19,
        "lat": 24.03,
        "lon_delta": 0,
        "lat_delta": 0
    },
    {
        "name": "云南砚山",
        "lon": 104.35,
        "lat": 23.62,
        "lon_delta": 0,
        "lat_delta": 0
    },
    {
        "name": "云南富宁",
        "lon": 105.6,
        "lat": 23.62,
        "lon_delta": 0,
        "lat_delta": 0
    },
    {
        "name": "云南个旧",
        "lon": 102.43,
        "lat": 23.35,
        "lon_delta": 0,
        "lat_delta": 0
    },
    {
        "name": "云南弥勒",
        "lon": 103.43,
        "lat": 24.41,
        "lon_delta": 0,
        "lat_delta": 0
    },
    {
        "name": "云南蒙自",
        "lon": 103.41,
        "lat": 23.36,
        "lon_delta": 0,
        "lat_delta": 0
    },
    {
        "name": "云南元阳",
        "lon": 102.81,
        "lat": 23.17,
        "lon_delta": 0,
        "lat_delta": 0
    },
    {
        "name": "云南红河",
        "lon": 102.42,
        "lat": 23.35,
        "lon_delta": 0,
        "lat_delta": 0
    },
    {
        "name": "云南石屏",
        "lon": 102.48,
        "lat": 23.73,
        "lon_delta": 0,
        "lat_delta": 0
    },
    {
        "name": "云南泸西",
        "lon": 103.76,
        "lat": 24.52,
        "lon_delta": 0,
        "lat_delta": 0
    },
    {
        "name": "云南金平",
        "lon": 103.24,
        "lat": 22.77,
        "lon_delta": 0,
        "lat_delta": 0
    },
    {
        "name": "云南开远",
        "lon": 103.23,
        "lat": 23.7,
        "lon_delta": 0,
        "lat_delta": 0
    },
    {
        "name": "云南绿春",
        "lon": 102.42,
        "lat": 23.01,
        "lon_delta": 0,
        "lat_delta": 0
    },
    {
        "name": "云南建水",
        "lon": 102.79,
        "lat": 23.64,
        "lon_delta": 0,
        "lat_delta": 0
    },
    {
        "name": "云南河口",
        "lon": 103.98,
        "lat": 22.52,
        "lon_delta": 0,
        "lat_delta": 0
    },
    {
        "name": "云南屏边",
        "lon": 103.67,
        "lat": 22.68,
        "lon_delta": 0,
        "lat_delta": 0
    },
    {
        "name": "云南景淇",
        "lon": 100.79,
        "lat": 22.0,
        "lon_delta": 0,
        "lat_delta": 0
    },
    {
        "name": "云南勐海",
        "lon": 100.5,
        "lat": 21.95,
        "lon_delta": 0,
        "lat_delta": 0
    },
    {
        "name": "云南勐腊",
        "lon": 101.56,
        "lat": 21.48,
        "lon_delta": 0,
        "lat_delta": 0
    },
    {
        "name": "云南楚雄",
        "lon": 101.54,
        "lat": 25.01,
        "lon_delta": 0,
        "lat_delta": 0
    },
    {
        "name": "云南元谋",
        "lon": 101.85,
        "lat": 25.7,
        "lon_delta": 0,
        "lat_delta": 0
    },
    {
        "name": "云南武定",
        "lon": 102.36,
        "lat": 25.55,
        "lon_delta": 0,
        "lat_delta": 0
    },
    {
        "name": "云南禄丰",
        "lon": 102.08,
        "lat": 25.15,
        "lon_delta": 0,
        "lat_delta": 0
    },
    {
        "name": "云南南华",
        "lon": 101.26,
        "lat": 25.21,
        "lon_delta": 0,
        "lat_delta": 0
    },
    {
        "name": "云南大姚",
        "lon": 101.34,
        "lat": 25.73,
        "lon_delta": 0,
        "lat_delta": 0
    },
    {
        "name": "云南永仁",
        "lon": 101.7,
        "lat": 26.07,
        "lon_delta": 0,
        "lat_delta": 0
    },
    {
        "name": "云南禄劝",
        "lon": 102.45,
        "lat": 25.58,
        "lon_delta": 0,
        "lat_delta": 0
    },
    {
        "name": "云南牟定",
        "lon": 101.58,
        "lat": 25.32,
        "lon_delta": 0,
        "lat_delta": 0
    },
    {
        "name": "云南双柏",
        "lon": 101.67,
        "lat": 24.68,
        "lon_delta": 0,
        "lat_delta": 0
    },
    {
        "name": "云南姚安",
        "lon": 101.24,
        "lat": 25.4,
        "lon_delta": 0,
        "lat_delta": 0
    },
    {
        "name": "云南下关",
        "lon": 100.24,
        "lat": 25.45,
        "lon_delta": 0,
        "lat_delta": 0
    },
    {
        "name": "云南剑川",
        "lon": 99.88,
        "lat": 26.53,
        "lon_delta": 0,
        "lat_delta": 0
    },
    {
        "name": "云南洱源",
        "lon": 99.94,
        "lat": 26.1,
        "lon_delta": 0,
        "lat_delta": 0
    },
    {
        "name": "云南宾川",
        "lon": 100.55,
        "lat": 25.82,
        "lon_delta": 0,
        "lat_delta": 0
    },
    {
        "name": "云南弥渡",
        "lon": 100.52,
        "lat": 25.34,
        "lon_delta": 0,
        "lat_delta": 0
    },
    {
        "name": "云南永平",
        "lon": 99.52,
        "lat": 25.45,
        "lon_delta": 0,
        "lat_delta": 0
    },
    {
        "name": "云南鹤庆",
        "lon": 100.18,
        "lat": 26.55,
        "lon_delta": 0,
        "lat_delta": 0
    },
    {
        "name": "云南大理",
        "lon": 100.19,
        "lat": 25.69,
        "lon_delta": 0,
        "lat_delta": 0
    },
    {
        "name": "云南漾濞",
        "lon": 99.98,
        "lat": 25.68,
        "lon_delta": 0,
        "lat_delta": 0
    },
    {
        "name": "云南云龙",
        "lon": 99.39,
        "lat": 25.9,
        "lon_delta": 0,
        "lat_delta": 0
    },
    {
        "name": "云南祥云",
        "lon": 100.56,
        "lat": 25.48,
        "lon_delta": 0,
        "lat_delta": 0
    },
    {
        "name": "云南巍山",
        "lon": 100.33,
        "lat": 25.23,
        "lon_delta": 0,
        "lat_delta": 0
    },
    {
        "name": "云南南涧",
        "lon": 100.51,
        "lat": 25.04,
        "lon_delta": 0,
        "lat_delta": 0
    },
    {
        "name": "云南潞西",
        "lon": 98.6,
        "lat": 24.41,
        "lon_delta": 0,
        "lat_delta": 0
    },
    {
        "name": "云南陇川",
        "lon": 97.96,
        "lat": 24.33,
        "lon_delta": 0,
        "lat_delta": 0
    },
    {
        "name": "云南盈江",
        "lon": 97.93,
        "lat": 24.69,
        "lon_delta": 0,
        "lat_delta": 0
    },
    {
        "name": "云南畹町",
        "lon": 98.08,
        "lat": 24.08,
        "lon_delta": 0,
        "lat_delta": 0
    },
    {
        "name": "云南瑞丽",
        "lon": 97.83,
        "lat": 24.0,
        "lon_delta": 0,
        "lat_delta": 0
    },
    {
        "name": "云南梁河",
        "lon": 98.3,
        "lat": 24.78,
        "lon_delta": 0,
        "lat_delta": 0
    },
    {
        "name": "云南泸水",
        "lon": 98.82,
        "lat": 25.97,
        "lon_delta": 0,
        "lat_delta": 0
    },
    {
        "name": "云南碧江",
        "lon": 98.95,
        "lat": 26.55,
        "lon_delta": 0,
        "lat_delta": 0
    },
    {
        "name": "云南福贡",
        "lon": 98.92,
        "lat": 26.89,
        "lon_delta": 0,
        "lat_delta": 0
    },
    {
        "name": "云南兰坪",
        "lon": 99.29,
        "lat": 26.49,
        "lon_delta": 0,
        "lat_delta": 0
    },
    {
        "name": "云南贡山",
        "lon": 98.65,
        "lat": 27.73,
        "lon_delta": 0,
        "lat_delta": 0
    },
    {
        "name": "云南中甸",
        "lon": 99.72,
        "lat": 27.78,
        "lon_delta": 0,
        "lat_delta": 0
    },
    {
        "name": "云南德钦",
        "lon": 98.93,
        "lat": 28.49,
        "lon_delta": 0,
        "lat_delta": 0
    },
    {
        "name": "云南维西",
        "lon": 99.27,
        "lat": 27.15,
        "lon_delta": 0,
        "lat_delta": 0
    },
    {
        "name": "其它岛屿钓鱼岛",
        "lon": 123.33,
        "lat": 25.0,
        "lon_delta": 0,
        "lat_delta": 0
    },
    {
        "name": "其它岛屿黄岩岛",
        "lon": 117.51,
        "lat": 15.07,
        "lon_delta": 0,
        "lat_delta": 0
    },
    {
        "name": "内蒙古呼和浩特",
        "lon": 111.65,
        "lat": 40.82,
        "lon_delta": 0,
        "lat_delta": 0
    },
    {
        "name": "内蒙古上默特左旗",
        "lon": 111.13,
        "lat": 40.72,
        "lon_delta": 0,
        "lat_delta": 0
    },
    {
        "name": "内蒙古托克托",
        "lon": 111.15,
        "lat": 40.28,
        "lon_delta": 0,
        "lat_delta": 0
    },
    {
        "name": "内蒙古包头",
        "lon": 110.0,
        "lat": 40.58,
        "lon_delta": 0,
        "lat_delta": 0
    },
    {
        "name": "内蒙古上默特右旗",
        "lon": 110.52,
        "lat": 40.55,
        "lon_delta": 0,
        "lat_delta": 0
    },
    {
        "name": "内蒙古固阳",
        "lon": 110.03,
        "lat": 41.03,
        "lon_delta": 0,
        "lat_delta": 0
    },
    {
        "name": "内蒙古乌海",
        "lon": 106.82,
        "lat": 39.67,
        "lon_delta": 0,
        "lat_delta": 0
    },
    {
        "name": "内蒙古集宁",
        "lon": 113.08,
        "lat": 41.03,
        "lon_delta": 0,
        "lat_delta": 0
    },
    {
        "name": "内蒙古兴和",
        "lon": 113.97,
        "lat": 40.88,
        "lon_delta": 0,
        "lat_delta": 0
    },
    {
        "name": "内蒙古清水河",
        "lon": 111.65,
        "lat": 39.92,
        "lon_delta": 0,
        "lat_delta": 0
    },
    {
        "name": "内蒙古武川",
        "lon": 111.42,
        "lat": 41.12,
        "lon_delta": 0,
        "lat_delta": 0
    },
    {
        "name": "内蒙古卓资",
        "lon": 112.52,
        "lat": 40.93,
        "lon_delta": 0,
        "lat_delta": 0
    },
    {
        "name": "内蒙古商都",
        "lon": 113.53,
        "lat": 41.58,
        "lon_delta": 0,
        "lat_delta": 0
    },
    {
        "name": "内蒙古丰镇",
        "lon": 113.15,
        "lat": 40.45,
        "lon_delta": 0,
        "lat_delta": 0
    },
    {
        "name": "内蒙古凉城",
        "lon": 112.48,
        "lat": 40.52,
        "lon_delta": 0,
        "lat_delta": 0
    },
    {
        "name": "内蒙古和林格尔",
        "lon": 111.8,
        "lat": 40.4,
        "lon_delta": 0,
        "lat_delta": 0
    },
    {
        "name": "内蒙古化德",
        "lon": 114.0,
        "lat": 41.9,
        "lon_delta": 0,
        "lat_delta": 0
    },
    {
        "name": "内蒙古四子王旗",
        "lon": 111.68,
        "lat": 41.37,
        "lon_delta": 0,
        "lat_delta": 0
    },
    {
        "name": "内蒙古二连浩特",
        "lon": 111.96,
        "lat": 43.65,
        "lon_delta": 0,
        "lat_delta": 0
    },
    {
        "name": "内蒙古阿巴哈纳尔旗",
        "lon": 116.08,
        "lat": 43.95,
        "lon_delta": 0,
        "lat_delta": 0
    },
    {
        "name": "内蒙古多伦",
        "lon": 116.48,
        "lat": 42.18,
        "lon_delta": 0,
        "lat_delta": 0
    },
    {
        "name": "内蒙古阿巴嘎旗",
        "lon": 114.97,
        "lat": 44.03,
        "lon_delta": 0,
        "lat_delta": 0
    },
    {
        "name": "内蒙古西乌珠穆沁旗",
        "lon": 117.58,
        "lat": 44.6,
        "lon_delta": 0,
        "lat_delta": 0
    },
    {
        "name": "内蒙古东乌珠穆沁旗",
        "lon": 116.97,
        "lat": 45.53,
        "lon_delta": 0,
        "lat_delta": 0
    },
    {
        "name": "内蒙古苏尼特左旗",
        "lon": 113.7,
        "lat": 43.85,
        "lon_delta": 0,
        "lat_delta": 0
    },
    {
        "name": "内蒙古苏尼特右旗",
        "lon": 112.95,
        "lat": 42.47,
        "lon_delta": 0,
        "lat_delta": 0
    },
    {
        "name": "内蒙古太仆寺旗",
        "lon": 115.3,
        "lat": 41.9,
        "lon_delta": 0,
        "lat_delta": 0
    },
    {
        "name": "内蒙古正镶白旗",
        "lon": 115.0,
        "lat": 42.32,
        "lon_delta": 0,
        "lat_delta": 0
    },
    {
        "name": "内蒙古正蓝旗",
        "lon": 116.02,
        "lat": 42.25,
        "lon_delta": 0,
        "lat_delta": 0
    },
    {
        "name": "内蒙古镶黄旗",
        "lon": 113.83,
        "lat": 42.25,
        "lon_delta": 0,
        "lat_delta": 0
    },
    {
        "name": "内蒙古海拉尔",
        "lon": 119.73,
        "lat": 29.22,
        "lon_delta": 0,
        "lat_delta": 0
    },
    {
        "name": "内蒙古满洲里",
        "lon": 117.47,
        "lat": 49.58,
        "lon_delta": 0,
        "lat_delta": 0
    },
    {
        "name": "内蒙古陈巴尔虎旗",
        "lon": 119.45,
        "lat": 49.33,
        "lon_delta": 0,
        "lat_delta": 0
    },
    {
        "name": "内蒙古额尔古纳右旗",
        "lon": 120.08,
        "lat": 50.45,
        "lon_delta": 0,
        "lat_delta": 0
    },
    {
        "name": "内蒙古额尔古纳左旗",
        "lon": 121.52,
        "lat": 50.8,
        "lon_delta": 0,
        "lat_delta": 0
    },
    {
        "name": "内蒙古喜桂图旗",
        "lon": 120.73,
        "lat": 49.3,
        "lon_delta": 0,
        "lat_delta": 0
    },
    {
        "name": "内蒙古阿荣旗",
        "lon": 123.5,
        "lat": 48.13,
        "lon_delta": 0,
        "lat_delta": 0
    },
    {
        "name": "内蒙古布特哈旗",
        "lon": 122.78,
        "lat": 47.98,
        "lon_delta": 0,
        "lat_delta": 0
    },
    {
        "name": "内蒙古新巴尔虎左旗",
        "lon": 116.82,
        "lat": 48.67,
        "lon_delta": 0,
        "lat_delta": 0
    },
    {
        "name": "内蒙古新巴尔虎右旗",
        "lon": 118.23,
        "lat": 48.22,
        "lon_delta": 0,
        "lat_delta": 0
    },
    {
        "name": "内蒙古鄂伦春自治旗",
        "lon": 123.7,
        "lat": 50.58,
        "lon_delta": 0,
        "lat_delta": 0
    },
    {
        "name": "内蒙古通辽",
        "lon": 122.28,
        "lat": 43.63,
        "lon_delta": 0,
        "lat_delta": 0
    },
    {
        "name": "内蒙古开鲁",
        "lon": 121.32,
        "lat": 43.62,
        "lon_delta": 0,
        "lat_delta": 0
    },
    {
        "name": "内蒙古库伦旗",
        "lon": 121.75,
        "lat": 42.72,
        "lon_delta": 0,
        "lat_delta": 0
    },
    {
        "name": "内蒙古奈曼旗",
        "lon": 120.65,
        "lat": 42.85,
        "lon_delta": 0,
        "lat_delta": 0
    },
    {
        "name": "内蒙古扎鲁特旗",
        "lon": 120.87,
        "lat": 44.55,
        "lon_delta": 0,
        "lat_delta": 0
    },
    {
        "name": "内蒙古赤峰",
        "lon": 118.87,
        "lat": 42.28,
        "lon_delta": 0,
        "lat_delta": 0
    },
    {
        "name": "内蒙古宁城",
        "lon": 119.32,
        "lat": 41.62,
        "lon_delta": 0,
        "lat_delta": 0
    },
    {
        "name": "内蒙古林西",
        "lon": 118.02,
        "lat": 43.62,
        "lon_delta": 0,
        "lat_delta": 0
    },
    {
        "name": "内蒙古喀喇沁旗",
        "lon": 118.67,
        "lat": 41.95,
        "lon_delta": 0,
        "lat_delta": 0
    },
    {
        "name": "内蒙古敖汉旗",
        "lon": 119.87,
        "lat": 42.3,
        "lon_delta": 0,
        "lat_delta": 0
    },
    {
        "name": "内蒙古翁牛特旗",
        "lon": 119.0,
        "lat": 42.97,
        "lon_delta": 0,
        "lat_delta": 0
    },
    {
        "name": "内蒙古巴林右旗",
        "lon": 118.65,
        "lat": 43.52,
        "lon_delta": 0,
        "lat_delta": 0
    },
    {
        "name": "内蒙古巴林左旗",
        "lon": 119.35,
        "lat": 43.98,
        "lon_delta": 0,
        "lat_delta": 0
    },
    {
        "name": "内蒙古阿鲁科尔沁旗",
        "lon": 120.05,
        "lat": 43.97,
        "lon_delta": 0,
        "lat_delta": 0
    },
    {
        "name": "内蒙古克什克腾旗",
        "lon": 117.48,
        "lat": 43.28,
        "lon_delta": 0,
        "lat_delta": 0
    },
    {
        "name": "内蒙古伊克昭盟",
        "lon": 110.0,
        "lat": 39.83,
        "lon_delta": 0,
        "lat_delta": 0
    },
    {
        "name": "内蒙古东胜县",
        "lon": 110.0,
        "lat": 39.83,
        "lon_delta": 0,
        "lat_delta": 0
    },
    {
        "name": "内蒙古准格尔旗",
        "lon": 111.13,
        "lat": 39.68,
        "lon_delta": 0,
        "lat_delta": 0
    },
    {
        "name": "内蒙古乌审旗",
        "lon": 109.03,
        "lat": 38.38,
        "lon_delta": 0,
        "lat_delta": 0
    },
    {
        "name": "内蒙古伊金霍洛旗",
        "lon": 109.77,
        "lat": 39.25,
        "lon_delta": 0,
        "lat_delta": 0
    },
    {
        "name": "内蒙古鄂托克旗",
        "lon": 107.97,
        "lat": 39.12,
        "lon_delta": 0,
        "lat_delta": 0
    },
    {
        "name": "内蒙古鄂托克前旗",
        "lon": 107.43,
        "lat": 38.18,
        "lon_delta": 0,
        "lat_delta": 0
    },
    {
        "name": "内蒙古杭锦旗",
        "lon": 108.7,
        "lat": 39.83,
        "lon_delta": 0,
        "lat_delta": 0
    },
    {
        "name": "内蒙古达拉特旗",
        "lon": 110.02,
        "lat": 40.42,
        "lon_delta": 0,
        "lat_delta": 0
    },
    {
        "name": "内蒙古临河",
        "lon": 107.37,
        "lat": 40.78,
        "lon_delta": 0,
        "lat_delta": 0
    },
    {
        "name": "内蒙古五原",
        "lon": 108.28,
        "lat": 41.12,
        "lon_delta": 0,
        "lat_delta": 0
    },
    {
        "name": "内蒙古磴口",
        "lon": 106.98,
        "lat": 40.33,
        "lon_delta": 0,
        "lat_delta": 0
    },
    {
        "name": "内蒙古杭锦后旗",
        "lon": 107.12,
        "lat": 40.88,
        "lon_delta": 0,
        "lat_delta": 0
    },
    {
        "name": "内蒙古乌拉特中旗",
        "lon": 108.52,
        "lat": 41.55,
        "lon_delta": 0,
        "lat_delta": 0
    },
    {
        "name": "内蒙古乌拉特前旗",
        "lon": 108.65,
        "lat": 40.75,
        "lon_delta": 0,
        "lat_delta": 0
    },
    {
        "name": "内蒙古乌拉特后旗",
        "lon": 108.52,
        "lat": 40.88,
        "lon_delta": 0,
        "lat_delta": 0
    },
    {
        "name": "内蒙古阿拉善左旗",
        "lon": 105.68,
        "lat": 38.85,
        "lon_delta": 0,
        "lat_delta": 0
    },
    {
        "name": "内蒙古阿拉善右旗",
        "lon": 101.68,
        "lat": 39.2,
        "lon_delta": 0,
        "lat_delta": 0
    },
    {
        "name": "内蒙古额济纳旗",
        "lon": 100.88,
        "lat": 41.9,
        "lon_delta": 0,
        "lat_delta": 0
    },
    {
        "name": "内蒙古乌兰浩特",
        "lon": 122.08,
        "lat": 46.07,
        "lon_delta": 0,
        "lat_delta": 0
    },
    {
        "name": "内蒙古突泉",
        "lon": 121.5,
        "lat": 45.4,
        "lon_delta": 0,
        "lat_delta": 0
    },
    {
        "name": "北京回龙观",
        "lon": 116.324438,
        "lat": 40.087705,
        "lon_delta": 0,
        "lat_delat": 0,
        "lat_delta": 0
    },
    {
        "name": "北京北京",
        "lon": 116.46,
        "lat": 39.92,
        "lon_delta": 0,
        "lat_delta": 0
    },
    {
        "name": "北京平谷",
        "lon": 117.1,
        "lat": 40.13,
        "lon_delta": 0,
        "lat_delta": 0
    },
    {
        "name": "北京密云",
        "lon": 116.85,
        "lat": 40.37,
        "lon_delta": 0,
        "lat_delta": 0
    },
    {
        "name": "北京顺义",
        "lon": 116.65,
        "lat": 40.13,
        "lon_delta": 0,
        "lat_delta": 0
    },
    {
        "name": "北京通县",
        "lon": 116.67,
        "lat": 39.92,
        "lon_delta": 0,
        "lat_delta": 0
    },
    {
        "name": "北京怀柔",
        "lon": 116.62,
        "lat": 40.32,
        "lon_delta": 0,
        "lat_delta": 0
    },
    {
        "name": "北京大兴",
        "lon": 116.33,
        "lat": 39.73,
        "lon_delta": 0,
        "lat_delta": 0
    },
    {
        "name": "北京房山",
        "lon": 115.98,
        "lat": 39.72,
        "lon_delta": 0,
        "lat_delta": 0
    },
    {
        "name": "吉林长春",
        "lon": 125.35,
        "lat": 43.88,
        "lon_delta": 0,
        "lat_delta": 0
    },
    {
        "name": "吉林吉林",
        "lon": 126.57,
        "lat": 43.87,
        "lon_delta": 0,
        "lat_delta": 0
    },
    {
        "name": "吉林农安",
        "lon": 125.15,
        "lat": 44.45,
        "lon_delta": 0,
        "lat_delta": 0
    },
    {
        "name": "吉林德惠",
        "lon": 125.68,
        "lat": 44.52,
        "lon_delta": 0,
        "lat_delta": 0
    },
    {
        "name": "吉林榆树",
        "lon": 126.55,
        "lat": 44.83,
        "lon_delta": 0,
        "lat_delta": 0
    },
    {
        "name": "吉林九台",
        "lon": 126.83,
        "lat": 44.15,
        "lon_delta": 0,
        "lat_delta": 0
    },
    {
        "name": "吉林双阳",
        "lon": 125.68,
        "lat": 43.53,
        "lon_delta": 0,
        "lat_delta": 0
    },
    {
        "name": "吉林永吉",
        "lon": 126.57,
        "lat": 43.87,
        "lon_delta": 0,
        "lat_delta": 0
    },
    {
        "name": "吉林舒兰",
        "lon": 126.97,
        "lat": 44.4,
        "lon_delta": 0,
        "lat_delta": 0
    },
    {
        "name": "吉林蛟河",
        "lon": 127.33,
        "lat": 43.75,
        "lon_delta": 0,
        "lat_delta": 0
    },
    {
        "name": "吉林桦甸",
        "lon": 126.72,
        "lat": 42.97,
        "lon_delta": 0,
        "lat_delta": 0
    },
    {
        "name": "吉林磐石",
        "lon": 126.03,
        "lat": 42.93,
        "lon_delta": 0,
        "lat_delta": 0
    },
    {
        "name": "吉林延吉",
        "lon": 129.52,
        "lat": 42.93,
        "lon_delta": 0,
        "lat_delta": 0
    },
    {
        "name": "吉林汪清",
        "lon": 129.75,
        "lat": 43.32,
        "lon_delta": 0,
        "lat_delta": 0
    },
    {
        "name": "吉林珲春",
        "lon": 130.35,
        "lat": 42.85,
        "lon_delta": 0,
        "lat_delta": 0
    },
    {
        "name": "吉林图们",
        "lon": 129.83,
        "lat": 42.98,
        "lon_delta": 0,
        "lat_delta": 0
    },
    {
        "name": "吉林和龙",
        "lon": 129.0,
        "lat": 42.52,
        "lon_delta": 0,
        "lat_delta": 0
    },
    {
        "name": "吉林安图",
        "lon": 128.3,
        "lat": 42.58,
        "lon_delta": 0,
        "lat_delta": 0
    },
    {
        "name": "吉林敦化",
        "lon": 128.18,
        "lat": 43.35,
        "lon_delta": 0,
        "lat_delta": 0
    },
    {
        "name": "吉林通化",
        "lon": 125.92,
        "lat": 41.49,
        "lon_delta": 0,
        "lat_delta": 0
    },
    {
        "name": "吉林柳河",
        "lon": 125.7,
        "lat": 40.88,
        "lon_delta": 0,
        "lat_delta": 0
    },
    {
        "name": "吉林海龙",
        "lon": 125.65,
        "lat": 42.53,
        "lon_delta": 0,
        "lat_delta": 0
    },
    {
        "name": "吉林辉南",
        "lon": 126.03,
        "lat": 42.68,
        "lon_delta": 0,
        "lat_delta": 0
    },
    {
        "name": "吉林靖宇",
        "lon": 126.8,
        "lat": 42.38,
        "lon_delta": 0,
        "lat_delta": 0
    },
    {
        "name": "吉林浑江",
        "lon": 126.4,
        "lat": 41.97,
        "lon_delta": 0,
        "lat_delta": 0
    },
    {
        "name": "吉林抚松",
        "lon": 127.27,
        "lat": 42.33,
        "lon_delta": 0,
        "lat_delta": 0
    },
    {
        "name": "吉林集安",
        "lon": 126.17,
        "lat": 41.15,
        "lon_delta": 0,
        "lat_delta": 0
    },
    {
        "name": "吉林长白",
        "lon": 128.17,
        "lat": 41.43,
        "lon_delta": 0,
        "lat_delta": 0
    },
    {
        "name": "吉林四平",
        "lon": 124.37,
        "lat": 43.17,
        "lon_delta": 0,
        "lat_delta": 0
    },
    {
        "name": "吉林梨树",
        "lon": 124.33,
        "lat": 43.32,
        "lon_delta": 0,
        "lat_delta": 0
    },
    {
        "name": "吉林怀德",
        "lon": 124.82,
        "lat": 43.5,
        "lon_delta": 0,
        "lat_delta": 0
    },
    {
        "name": "吉林伊通",
        "lon": 125.32,
        "lat": 43.33,
        "lon_delta": 0,
        "lat_delta": 0
    },
    {
        "name": "吉林辽源",
        "lon": 125.15,
        "lat": 42.97,
        "lon_delta": 0,
        "lat_delta": 0
    },
    {
        "name": "吉林东丰",
        "lon": 125.5,
        "lat": 42.68,
        "lon_delta": 0,
        "lat_delta": 0
    },
    {
        "name": "吉林双辽",
        "lon": 123.5,
        "lat": 43.52,
        "lon_delta": 0,
        "lat_delta": 0
    },
    {
        "name": "吉林白城",
        "lon": 122.82,
        "lat": 45.63,
        "lon_delta": 0,
        "lat_delta": 0
    },
    {
        "name": "吉林大安",
        "lon": 124.18,
        "lat": 45.5,
        "lon_delta": 0,
        "lat_delta": 0
    },
    {
        "name": "吉林扶余",
        "lon": 124.82,
        "lat": 45.2,
        "lon_delta": 0,
        "lat_delta": 0
    },
    {
        "name": "吉林乾安",
        "lon": 124.02,
        "lat": 45.0,
        "lon_delta": 0,
        "lat_delta": 0
    },
    {
        "name": "吉林长岭",
        "lon": 123.97,
        "lat": 44.3,
        "lon_delta": 0,
        "lat_delta": 0
    },
    {
        "name": "吉林通榆",
        "lon": 123.13,
        "lat": 44.82,
        "lon_delta": 0,
        "lat_delta": 0
    },
    {
        "name": "吉林洮安",
        "lon": 122.75,
        "lat": 45.35,
        "lon_delta": 0,
        "lat_delta": 0
    },
    {
        "name": "四川成都",
        "lon": 104.06,
        "lat": 30.67,
        "lon_delta": 0,
        "lat_delta": 0
    },
    {
        "name": "四川金堂",
        "lon": 104.32,
        "lat": 30.88,
        "lon_delta": 0,
        "lat_delta": 0
    },
    {
        "name": "四川双流",
        "lon": 104.94,
        "lat": 30.57,
        "lon_delta": 0,
        "lat_delta": 0
    },
    {
        "name": "四川蒲江",
        "lon": 103.29,
        "lat": 30.2,
        "lon_delta": 0,
        "lat_delta": 0
    },
    {
        "name": "四川郫县",
        "lon": 103.86,
        "lat": 30.8,
        "lon_delta": 0,
        "lat_delta": 0
    },
    {
        "name": "四川新都",
        "lon": 104.13,
        "lat": 30.82,
        "lon_delta": 0,
        "lat_delta": 0
    },
    {
        "name": "四川来易",
        "lon": 102.15,
        "lat": 26.9,
        "lon_delta": 0,
        "lat_delta": 0
    },
    {
        "name": "四川盐边",
        "lon": 101.56,
        "lat": 26.9,
        "lon_delta": 0,
        "lat_delta": 0
    },
    {
        "name": "四川温江",
        "lon": 103.81,
        "lat": 30.97,
        "lon_delta": 0,
        "lat_delta": 0
    },
    {
        "name": "四川灌县",
        "lon": 103.61,
        "lat": 31.04,
        "lon_delta": 0,
        "lat_delta": 0
    },
    {
        "name": "四川彭县",
        "lon": 103.94,
        "lat": 30.99,
        "lon_delta": 0,
        "lat_delta": 0
    },
    {
        "name": "四川什邡",
        "lon": 104.16,
        "lat": 31.13,
        "lon_delta": 0,
        "lat_delta": 0
    },
    {
        "name": "四川广汉",
        "lon": 104.25,
        "lat": 30.99,
        "lon_delta": 0,
        "lat_delta": 0
    },
    {
        "name": "四川新津",
        "lon": 103.78,
        "lat": 30.42,
        "lon_delta": 0,
        "lat_delta": 0
    },
    {
        "name": "四川邛崃",
        "lon": 103.47,
        "lat": 30.42,
        "lon_delta": 0,
        "lat_delta": 0
    },
    {
        "name": "四川大邑",
        "lon": 103.53,
        "lat": 30.58,
        "lon_delta": 0,
        "lat_delta": 0
    },
    {
        "name": "四川崇庆",
        "lon": 103.69,
        "lat": 30.63,
        "lon_delta": 0,
        "lat_delta": 0
    },
    {
        "name": "四川绵阳",
        "lon": 104.73,
        "lat": 31.48,
        "lon_delta": 0,
        "lat_delta": 0
    },
    {
        "name": "四川江油",
        "lon": 104.7,
        "lat": 31.8,
        "lon_delta": 0,
        "lat_delta": 0
    },
    {
        "name": "四川青川",
        "lon": 105.21,
        "lat": 32.59,
        "lon_delta": 0,
        "lat_delta": 0
    },
    {
        "name": "四川平武",
        "lon": 104.52,
        "lat": 32.42,
        "lon_delta": 0,
        "lat_delta": 0
    },
    {
        "name": "四川光元",
        "lon": 105.86,
        "lat": 32.44,
        "lon_delta": 0,
        "lat_delta": 0
    },
    {
        "name": "四川旺苍",
        "lon": 106.33,
        "lat": 32.25,
        "lon_delta": 0,
        "lat_delta": 0
    },
    {
        "name": "四川剑阁",
        "lon": 105.45,
        "lat": 32.03,
        "lon_delta": 0,
        "lat_delta": 0
    },
    {
        "name": "四川梓潼",
        "lon": 105.16,
        "lat": 31.64,
        "lon_delta": 0,
        "lat_delta": 0
    },
    {
        "name": "四川三台",
        "lon": 105.06,
        "lat": 31.1,
        "lon_delta": 0,
        "lat_delta": 0
    },
    {
        "name": "四川盐亭",
        "lon": 105.35,
        "lat": 31.23,
        "lon_delta": 0,
        "lat_delta": 0
    },
    {
        "name": "四川射洪",
        "lon": 105.31,
        "lat": 30.9,
        "lon_delta": 0,
        "lat_delta": 0
    },
    {
        "name": "四川遂宁",
        "lon": 105.58,
        "lat": 30.52,
        "lon_delta": 0,
        "lat_delta": 0
    },
    {
        "name": "四川蓬溪",
        "lon": 105.74,
        "lat": 30.78,
        "lon_delta": 0,
        "lat_delta": 0
    },
    {
        "name": "四川中江",
        "lon": 104.68,
        "lat": 31.06,
        "lon_delta": 0,
        "lat_delta": 0
    },
    {
        "name": "四川德阳",
        "lon": 104.37,
        "lat": 31.13,
        "lon_delta": 0,
        "lat_delta": 0
    },
    {
        "name": "四川绵竹",
        "lon": 104.19,
        "lat": 31.32,
        "lon_delta": 0,
        "lat_delta": 0
    },
    {
        "name": "四川安县",
        "lon": 104.41,
        "lat": 31.64,
        "lon_delta": 0,
        "lat_delta": 0
    },
    {
        "name": "四川北川",
        "lon": 104.44,
        "lat": 31.89,
        "lon_delta": 0,
        "lat_delta": 0
    },
    {
        "name": "四川内江",
        "lon": 105.04,
        "lat": 29.59,
        "lon_delta": 0,
        "lat_delta": 0
    },
    {
        "name": "四川乐至",
        "lon": 105.02,
        "lat": 30.3,
        "lon_delta": 0,
        "lat_delta": 0
    },
    {
        "name": "四川安岳",
        "lon": 105.3,
        "lat": 30.12,
        "lon_delta": 0,
        "lat_delta": 0
    },
    {
        "name": "四川威远",
        "lon": 104.7,
        "lat": 29.57,
        "lon_delta": 0,
        "lat_delta": 0
    },
    {
        "name": "四川资中",
        "lon": 104.85,
        "lat": 29.81,
        "lon_delta": 0,
        "lat_delta": 0
    },
    {
        "name": "四川资阳",
        "lon": 104.6,
        "lat": 30.19,
        "lon_delta": 0,
        "lat_delta": 0
    },
    {
        "name": "四川简阳",
        "lon": 104.53,
        "lat": 30.38,
        "lon_delta": 0,
        "lat_delta": 0
    },
    {
        "name": "四川隆昌",
        "lon": 105.25,
        "lat": 29.64,
        "lon_delta": 0,
        "lat_delta": 0
    },
    {
        "name": "四川宜宾",
        "lon": 104.56,
        "lat": 29.77,
        "lon_delta": 0,
        "lat_delta": 0
    },
    {
        "name": "四川富顺",
        "lon": 104.97,
        "lat": 29.24,
        "lon_delta": 0,
        "lat_delta": 0
    },
    {
        "name": "四川南溪",
        "lon": 104.96,
        "lat": 28.87,
        "lon_delta": 0,
        "lat_delta": 0
    },
    {
        "name": "四川江安",
        "lon": 105.06,
        "lat": 28.71,
        "lon_delta": 0,
        "lat_delta": 0
    },
    {
        "name": "四川纳溪",
        "lon": 105.38,
        "lat": 28.77,
        "lon_delta": 0,
        "lat_delta": 0
    },
    {
        "name": "四川泸县",
        "lon": 105.46,
        "lat": 28.96,
        "lon_delta": 0,
        "lat_delta": 0
    },
    {
        "name": "四川合江",
        "lon": 105.78,
        "lat": 28.79,
        "lon_delta": 0,
        "lat_delta": 0
    },
    {
        "name": "四川泸州",
        "lon": 105.39,
        "lat": 28.91,
        "lon_delta": 0,
        "lat_delta": 0
    },
    {
        "name": "四川古蔺",
        "lon": 105.79,
        "lat": 28.03,
        "lon_delta": 0,
        "lat_delta": 0
    },
    {
        "name": "四川叙水",
        "lon": 105.44,
        "lat": 28.19,
        "lon_delta": 0,
        "lat_delta": 0
    },
    {
        "name": "四川长宁",
        "lon": 104.91,
        "lat": 28.6,
        "lon_delta": 0,
        "lat_delta": 0
    },
    {
        "name": "四川兴文",
        "lon": 105.06,
        "lat": 28.36,
        "lon_delta": 0,
        "lat_delta": 0
    },
    {
        "name": "四川琪县",
        "lon": 104.81,
        "lat": 28.38,
        "lon_delta": 0,
        "lat_delta": 0
    },
    {
        "name": "四川高县",
        "lon": 104.52,
        "lat": 28.4,
        "lon_delta": 0,
        "lat_delta": 0
    },
    {
        "name": "四川筠连",
        "lon": 104.53,
        "lat": 28.16,
        "lon_delta": 0,
        "lat_delta": 0
    },
    {
        "name": "四川屏由",
        "lon": 104.15,
        "lat": 28.68,
        "lon_delta": 0,
        "lat_delta": 0
    },
    {
        "name": "四川乐由",
        "lon": 103.73,
        "lat": 29.59,
        "lon_delta": 0,
        "lat_delta": 0
    },
    {
        "name": "四川夹江",
        "lon": 103.59,
        "lat": 29.75,
        "lon_delta": 0,
        "lat_delta": 0
    },
    {
        "name": "四川洪雅",
        "lon": 103.38,
        "lat": 29.95,
        "lon_delta": 0,
        "lat_delta": 0
    },
    {
        "name": "四川丹棱",
        "lon": 103.53,
        "lat": 30.04,
        "lon_delta": 0,
        "lat_delta": 0
    },
    {
        "name": "四川青神",
        "lon": 103.81,
        "lat": 29.86,
        "lon_delta": 0,
        "lat_delta": 0
    },
    {
        "name": "四川眉由",
        "lon": 103.81,
        "lat": 30.05,
        "lon_delta": 0,
        "lat_delta": 0
    },
    {
        "name": "四川彭由",
        "lon": 103.83,
        "lat": 30.22,
        "lon_delta": 0,
        "lat_delta": 0
    },
    {
        "name": "四川井研",
        "lon": 104.06,
        "lat": 29.67,
        "lon_delta": 0,
        "lat_delta": 0
    },
    {
        "name": "四川仁寿",
        "lon": 104.09,
        "lat": 30.0,
        "lon_delta": 0,
        "lat_delta": 0
    },
    {
        "name": "四川犍为",
        "lon": 103.93,
        "lat": 29.21,
        "lon_delta": 0,
        "lat_delta": 0
    },
    {
        "name": "四川沐川",
        "lon": 103.98,
        "lat": 28.96,
        "lon_delta": 0,
        "lat_delta": 0
    },
    {
        "name": "四川娥眉",
        "lon": 103.5,
        "lat": 29.62,
        "lon_delta": 0,
        "lat_delta": 0
    },
    {
        "name": "四川马边",
        "lon": 103.53,
        "lat": 28.87,
        "lon_delta": 0,
        "lat_delta": 0
    },
    {
        "name": "四川峨边",
        "lon": 103.25,
        "lat": 29.23,
        "lon_delta": 0,
        "lat_delta": 0
    },
    {
        "name": "四川金口",
        "lon": 103.13,
        "lat": 29.24,
        "lon_delta": 0,
        "lat_delta": 0
    },
    {
        "name": "四川涪陵",
        "lon": 107.36,
        "lat": 29.7,
        "lon_delta": 0,
        "lat_delta": 0
    },
    {
        "name": "四川垫江",
        "lon": 107.34,
        "lat": 30.36,
        "lon_delta": 0,
        "lat_delta": 0
    },
    {
        "name": "四川丰都",
        "lon": 107.7,
        "lat": 29.89,
        "lon_delta": 0,
        "lat_delta": 0
    },
    {
        "name": "四川石柱",
        "lon": 108.13,
        "lat": 29.98,
        "lon_delta": 0,
        "lat_delta": 0
    },
    {
        "name": "四川秀山",
        "lon": 108.97,
        "lat": 28.47,
        "lon_delta": 0,
        "lat_delta": 0
    },
    {
        "name": "四川西阳",
        "lon": 108.75,
        "lat": 28.85,
        "lon_delta": 0,
        "lat_delta": 0
    },
    {
        "name": "四川黔江",
        "lon": 108.81,
        "lat": 29.53,
        "lon_delta": 0,
        "lat_delta": 0
    },
    {
        "name": "四川彭水",
        "lon": 108.19,
        "lat": 29.29,
        "lon_delta": 0,
        "lat_delta": 0
    },
    {
        "name": "四川武隆",
        "lon": 108.72,
        "lat": 29.29,
        "lon_delta": 0,
        "lat_delta": 0
    },
    {
        "name": "四川南川",
        "lon": 107.13,
        "lat": 29.15,
        "lon_delta": 0,
        "lat_delta": 0
    },
    {
        "name": "四川万县",
        "lon": 108.35,
        "lat": 30.83,
        "lon_delta": 0,
        "lat_delta": 0
    },
    {
        "name": "四川开县",
        "lon": 108.39,
        "lat": 31.23,
        "lon_delta": 0,
        "lat_delta": 0
    },
    {
        "name": "四川城口",
        "lon": 108.67,
        "lat": 31.98,
        "lon_delta": 0,
        "lat_delta": 0
    },
    {
        "name": "四川巫溪",
        "lon": 109.6,
        "lat": 31.42,
        "lon_delta": 0,
        "lat_delta": 0
    },
    {
        "name": "四川巫山",
        "lon": 109.86,
        "lat": 31.1,
        "lon_delta": 0,
        "lat_delta": 0
    },
    {
        "name": "四川奉节",
        "lon": 109.52,
        "lat": 31.06,
        "lon_delta": 0,
        "lat_delta": 0
    },
    {
        "name": "四川云阳",
        "lon": 108.89,
        "lat": 30.99,
        "lon_delta": 0,
        "lat_delta": 0
    },
    {
        "name": "四川忠县",
        "lon": 108.03,
        "lat": 30.33,
        "lon_delta": 0,
        "lat_delta": 0
    },
    {
        "name": "四川梁平",
        "lon": 107.78,
        "lat": 30.66,
        "lon_delta": 0,
        "lat_delta": 0
    },
    {
        "name": "四川南允",
        "lon": 106.06,
        "lat": 30.8,
        "lon_delta": 0,
        "lat_delta": 0
    },
    {
        "name": "四川苍溪",
        "lon": 105.96,
        "lat": 31.75,
        "lon_delta": 0,
        "lat_delta": 0
    },
    {
        "name": "四川阆中",
        "lon": 105.97,
        "lat": 31.75,
        "lon_delta": 0,
        "lat_delta": 0
    },
    {
        "name": "四川仪陇",
        "lon": 106.38,
        "lat": 31.52,
        "lon_delta": 0,
        "lat_delta": 0
    },
    {
        "name": "四川南部",
        "lon": 106.03,
        "lat": 31.34,
        "lon_delta": 0,
        "lat_delta": 0
    },
    {
        "name": "四川西允",
        "lon": 105.84,
        "lat": 31.01,
        "lon_delta": 0,
        "lat_delta": 0
    },
    {
        "name": "四川营山",
        "lon": 106.57,
        "lat": 31.07,
        "lon_delta": 0,
        "lat_delta": 0
    },
    {
        "name": "四川蓬安",
        "lon": 106.44,
        "lat": 31.04,
        "lon_delta": 0,
        "lat_delta": 0
    },
    {
        "name": "四川广安",
        "lon": 106.61,
        "lat": 30.48,
        "lon_delta": 0,
        "lat_delta": 0
    },
    {
        "name": "四川岳池",
        "lon": 106.43,
        "lat": 30.55,
        "lon_delta": 0,
        "lat_delta": 0
    },
    {
        "name": "四川武胜",
        "lon": 106.3,
        "lat": 30.38,
        "lon_delta": 0,
        "lat_delta": 0
    },
    {
        "name": "四川华云",
        "lon": 106.74,
        "lat": 30.41,
        "lon_delta": 0,
        "lat_delta": 0
    },
    {
        "name": "四川达县",
        "lon": 107.49,
        "lat": 31.23,
        "lon_delta": 0,
        "lat_delta": 0
    },
    {
        "name": "四川万源",
        "lon": 108.06,
        "lat": 32.07,
        "lon_delta": 0,
        "lat_delta": 0
    },
    {
        "name": "四川宜汉",
        "lon": 107.71,
        "lat": 31.39,
        "lon_delta": 0,
        "lat_delta": 0
    },
    {
        "name": "四川开江",
        "lon": 107.87,
        "lat": 31.1,
        "lon_delta": 0,
        "lat_delta": 0
    },
    {
        "name": "四川邻水",
        "lon": 106.91,
        "lat": 30.36,
        "lon_delta": 0,
        "lat_delta": 0
    },
    {
        "name": "四川大竹",
        "lon": 107.21,
        "lat": 30.75,
        "lon_delta": 0,
        "lat_delta": 0
    },
    {
        "name": "四川渠县",
        "lon": 106.94,
        "lat": 30.85,
        "lon_delta": 0,
        "lat_delta": 0
    },
    {
        "name": "四川南江",
        "lon": 106.83,
        "lat": 32.36,
        "lon_delta": 0,
        "lat_delta": 0
    },
    {
        "name": "四川巴中",
        "lon": 106.73,
        "lat": 31.86,
        "lon_delta": 0,
        "lat_delta": 0
    },
    {
        "name": "四川平昌",
        "lon": 107.11,
        "lat": 31.59,
        "lon_delta": 0,
        "lat_delta": 0
    },
    {
        "name": "四川通江",
        "lon": 108.24,
        "lat": 31.95,
        "lon_delta": 0,
        "lat_delta": 0
    },
    {
        "name": "四川百沙",
        "lon": 108.18,
        "lat": 32.0,
        "lon_delta": 0,
        "lat_delta": 0
    },
    {
        "name": "四川雅安",
        "lon": 102.97,
        "lat": 29.97,
        "lon_delta": 0,
        "lat_delta": 0
    },
    {
        "name": "四川芦山",
        "lon": 102.91,
        "lat": 30.17,
        "lon_delta": 0,
        "lat_delta": 0
    },
    {
        "name": "四川名山",
        "lon": 103.06,
        "lat": 30.09,
        "lon_delta": 0,
        "lat_delta": 0
    },
    {
        "name": "四川荣经",
        "lon": 102.81,
        "lat": 29.79,
        "lon_delta": 0,
        "lat_delta": 0
    },
    {
        "name": "四川汉源",
        "lon": 102.66,
        "lat": 29.4,
        "lon_delta": 0,
        "lat_delta": 0
    },
    {
        "name": "四川石棉",
        "lon": 102.38,
        "lat": 29.21,
        "lon_delta": 0,
        "lat_delta": 0
    },
    {
        "name": "四川天全",
        "lon": 102.78,
        "lat": 30.09,
        "lon_delta": 0,
        "lat_delta": 0
    },
    {
        "name": "四川宝兴",
        "lon": 102.84,
        "lat": 30.36,
        "lon_delta": 0,
        "lat_delta": 0
    },
    {
        "name": "四川马尔康",
        "lon": 102.22,
        "lat": 31.92,
        "lon_delta": 0,
        "lat_delta": 0
    },
    {
        "name": "四川红原",
        "lon": 102.55,
        "lat": 31.79,
        "lon_delta": 0,
        "lat_delta": 0
    },
    {
        "name": "四川阿坝",
        "lon": 101.72,
        "lat": 31.93,
        "lon_delta": 0,
        "lat_delta": 0
    },
    {
        "name": "四川若尔盖",
        "lon": 102.94,
        "lat": 33.62,
        "lon_delta": 0,
        "lat_delta": 0
    },
    {
        "name": "四川黑水",
        "lon": 102.95,
        "lat": 32.06,
        "lon_delta": 0,
        "lat_delta": 0
    },
    {
        "name": "四川松潘",
        "lon": 103.61,
        "lat": 32.64,
        "lon_delta": 0,
        "lat_delta": 0
    },
    {
        "name": "四川南坪",
        "lon": 104.19,
        "lat": 33.23,
        "lon_delta": 0,
        "lat_delta": 0
    },
    {
        "name": "四川汶川",
        "lon": 103.61,
        "lat": 31.46,
        "lon_delta": 0,
        "lat_delta": 0
    },
    {
        "name": "四川理县",
        "lon": 103.16,
        "lat": 31.42,
        "lon_delta": 0,
        "lat_delta": 0
    },
    {
        "name": "四川小金",
        "lon": 102.34,
        "lat": 30.97,
        "lon_delta": 0,
        "lat_delta": 0
    },
    {
        "name": "四川金川",
        "lon": 102.03,
        "lat": 31.48,
        "lon_delta": 0,
        "lat_delta": 0
    },
    {
        "name": "四川壤塘",
        "lon": 100.97,
        "lat": 32.3,
        "lon_delta": 0,
        "lat_delta": 0
    },
    {
        "name": "四川茂汶",
        "lon": 103.89,
        "lat": 31.67,
        "lon_delta": 0,
        "lat_delta": 0
    },
    {
        "name": "四川康定",
        "lon": 101.95,
        "lat": 30.04,
        "lon_delta": 0,
        "lat_delta": 0
    },
    {
        "name": "四川炉霍",
        "lon": 100.65,
        "lat": 31.38,
        "lon_delta": 0,
        "lat_delta": 0
    },
    {
        "name": "四川甘孜",
        "lon": 99.96,
        "lat": 31.64,
        "lon_delta": 0,
        "lat_delta": 0
    },
    {
        "name": "四川新龙",
        "lon": 100.28,
        "lat": 30.96,
        "lon_delta": 0,
        "lat_delta": 0
    },
    {
        "name": "四川白玉",
        "lon": 98.83,
        "lat": 32.23,
        "lon_delta": 0,
        "lat_delta": 0
    },
    {
        "name": "四川德格",
        "lon": 98.57,
        "lat": 31.81,
        "lon_delta": 0,
        "lat_delta": 0
    },
    {
        "name": "四川石渠",
        "lon": 98.06,
        "lat": 33.01,
        "lon_delta": 0,
        "lat_delta": 0
    },
    {
        "name": "四川色达",
        "lon": 100.35,
        "lat": 32.3,
        "lon_delta": 0,
        "lat_delta": 0
    },
    {
        "name": "四川泸定",
        "lon": 102.25,
        "lat": 29.92,
        "lon_delta": 0,
        "lat_delta": 0
    },
    {
        "name": "四川丹巴",
        "lon": 101.87,
        "lat": 30.85,
        "lon_delta": 0,
        "lat_delta": 0
    },
    {
        "name": "四川九龙",
        "lon": 101.53,
        "lat": 29.01,
        "lon_delta": 0,
        "lat_delta": 0
    },
    {
        "name": "四川雅江",
        "lon": 101.0,
        "lat": 30.03,
        "lon_delta": 0,
        "lat_delta": 0
    },
    {
        "name": "四川道孚",
        "lon": 101.14,
        "lat": 30.99,
        "lon_delta": 0,
        "lat_delta": 0
    },
    {
        "name": "四川理塘",
        "lon": 100.28,
        "lat": 30.03,
        "lon_delta": 0,
        "lat_delta": 0
    },
    {
        "name": "四川乡城",
        "lon": 99.78,
        "lat": 28.93,
        "lon_delta": 0,
        "lat_delta": 0
    },
    {
        "name": "四川稻城",
        "lon": 100.31,
        "lat": 29.04,
        "lon_delta": 0,
        "lat_delta": 0
    },
    {
        "name": "四川巴塘",
        "lon": 99.0,
        "lat": 30.0,
        "lon_delta": 0,
        "lat_delta": 0
    },
    {
        "name": "四川得荣",
        "lon": 99.25,
        "lat": 28.71,
        "lon_delta": 0,
        "lat_delta": 0
    },
    {
        "name": "四川西昌",
        "lon": 102.29,
        "lat": 27.92,
        "lon_delta": 0,
        "lat_delta": 0
    },
    {
        "name": "四川昭觉",
        "lon": 102.83,
        "lat": 28.03,
        "lon_delta": 0,
        "lat_delta": 0
    },
    {
        "name": "四川甘洛",
        "lon": 102.74,
        "lat": 28.96,
        "lon_delta": 0,
        "lat_delta": 0
    },
    {
        "name": "四川雷波",
        "lon": 103.62,
        "lat": 28.21,
        "lon_delta": 0,
        "lat_delta": 0
    },
    {
        "name": "四川宁南",
        "lon": 102.76,
        "lat": 27.07,
        "lon_delta": 0,
        "lat_delta": 0
    },
    {
        "name": "四川会东",
        "lon": 102.55,
        "lat": 26.74,
        "lon_delta": 0,
        "lat_delta": 0
    },
    {
        "name": "四川会理",
        "lon": 102.21,
        "lat": 26.67,
        "lon_delta": 0,
        "lat_delta": 0
    },
    {
        "name": "四川德昌",
        "lon": 102.15,
        "lat": 27.4,
        "lon_delta": 0,
        "lat_delta": 0
    },
    {
        "name": "四川美姑",
        "lon": 103.14,
        "lat": 28.33,
        "lon_delta": 0,
        "lat_delta": 0
    },
    {
        "name": "四川金阳",
        "lon": 103.22,
        "lat": 27.73,
        "lon_delta": 0,
        "lat_delta": 0
    },
    {
        "name": "四川布拖",
        "lon": 102.8,
        "lat": 27.7,
        "lon_delta": 0,
        "lat_delta": 0
    },
    {
        "name": "四川普格",
        "lon": 102.52,
        "lat": 27.38,
        "lon_delta": 0,
        "lat_delta": 0
    },
    {
        "name": "四川喜德",
        "lon": 102.42,
        "lat": 28.33,
        "lon_delta": 0,
        "lat_delta": 0
    },
    {
        "name": "四川越西",
        "lon": 102.49,
        "lat": 28.66,
        "lon_delta": 0,
        "lat_delta": 0
    },
    {
        "name": "四川盐源",
        "lon": 101.51,
        "lat": 27.42,
        "lon_delta": 0,
        "lat_delta": 0
    },
    {
        "name": "四川冕宁",
        "lon": 102.15,
        "lat": 28.58,
        "lon_delta": 0,
        "lat_delta": 0
    },
    {
        "name": "四川木里",
        "lon": 101.25,
        "lat": 27.9,
        "lon_delta": 0,
        "lat_delta": 0
    },
    {
        "name": "天津天津",
        "lon": 117.2,
        "lat": 39.13,
        "lon_delta": 0,
        "lat_delta": 0
    },
    {
        "name": "天津宁河",
        "lon": 117.83,
        "lat": 39.33,
        "lon_delta": 0,
        "lat_delta": 0
    },
    {
        "name": "天津静海",
        "lon": 116.92,
        "lat": 38.93,
        "lon_delta": 0,
        "lat_delta": 0
    },
    {
        "name": "天津蓟县",
        "lon": 117.4,
        "lat": 40.05,
        "lon_delta": 0,
        "lat_delta": 0
    },
    {
        "name": "天津宝坻",
        "lon": 117.3,
        "lat": 39.75,
        "lon_delta": 0,
        "lat_delta": 0
    },
    {
        "name": "天津武清",
        "lon": 117.05,
        "lat": 39.4,
        "lon_delta": 0,
        "lat_delta": 0
    },
    {
        "name": "宁夏回族自治区银川",
        "lon": 106.27,
        "lat": 38.47,
        "lon_delta": 0,
        "lat_delta": 0
    },
    {
        "name": "宁夏回族自治区永宁",
        "lon": 106.24,
        "lat": 38.28,
        "lon_delta": 0,
        "lat_delta": 0
    },
    {
        "name": "宁夏回族自治区贺兰",
        "lon": 106.35,
        "lat": 38.55,
        "lon_delta": 0,
        "lat_delta": 0
    },
    {
        "name": "宁夏回族自治区石嘴山",
        "lon": 106.39,
        "lat": 39.04,
        "lon_delta": 0,
        "lat_delta": 0
    },
    {
        "name": "宁夏回族自治区平罗",
        "lon": 106.54,
        "lat": 38.91,
        "lon_delta": 0,
        "lat_delta": 0
    },
    {
        "name": "宁夏回族自治区陶乐",
        "lon": 106.69,
        "lat": 38.82,
        "lon_delta": 0,
        "lat_delta": 0
    },
    {
        "name": "宁夏回族自治区吴忠",
        "lon": 106.21,
        "lat": 37.99,
        "lon_delta": 0,
        "lat_delta": 0
    },
    {
        "name": "宁夏回族自治区同心",
        "lon": 105.94,
        "lat": 36.97,
        "lon_delta": 0,
        "lat_delta": 0
    },
    {
        "name": "宁夏回族自治区灵武",
        "lon": 106.34,
        "lat": 38.1,
        "lon_delta": 0,
        "lat_delta": 0
    },
    {
        "name": "宁夏回族自治区中宁",
        "lon": 105.66,
        "lat": 37.48,
        "lon_delta": 0,
        "lat_delta": 0
    },
    {
        "name": "宁夏回族自治区盐池",
        "lon": 107.41,
        "lat": 37.78,
        "lon_delta": 0,
        "lat_delta": 0
    },
    {
        "name": "宁夏回族自治区中卫",
        "lon": 105.18,
        "lat": 37.51,
        "lon_delta": 0,
        "lat_delta": 0
    },
    {
        "name": "宁夏回族自治区青铜峡",
        "lon": 106.07,
        "lat": 38.02,
        "lon_delta": 0,
        "lat_delta": 0
    },
    {
        "name": "宁夏回族自治区固原",
        "lon": 106.28,
        "lat": 36.01,
        "lon_delta": 0,
        "lat_delta": 0
    },
    {
        "name": "宁夏回族自治区西吉",
        "lon": 105.7,
        "lat": 35.97,
        "lon_delta": 0,
        "lat_delta": 0
    },
    {
        "name": "宁夏回族自治区泾源",
        "lon": 106.33,
        "lat": 35.5,
        "lon_delta": 0,
        "lat_delta": 0
    },
    {
        "name": "宁夏回族自治区海原",
        "lon": 105.64,
        "lat": 36.56,
        "lon_delta": 0,
        "lat_delta": 0
    },
    {
        "name": "宁夏回族自治区隆德",
        "lon": 106.11,
        "lat": 35.63,
        "lon_delta": 0,
        "lat_delta": 0
    },
    {
        "name": "安徽合肥",
        "lon": 117.27,
        "lat": 31.86,
        "lon_delta": 0,
        "lat_delta": 0
    },
    {
        "name": "安徽长丰",
        "lon": 117.16,
        "lat": 32.47,
        "lon_delta": 0,
        "lat_delta": 0
    },
    {
        "name": "安徽淮南",
        "lon": 116.98,
        "lat": 32.62,
        "lon_delta": 0,
        "lat_delta": 0
    },
    {
        "name": "安徽凤台",
        "lon": 116.71,
        "lat": 32.68,
        "lon_delta": 0,
        "lat_delta": 0
    },
    {
        "name": "安徽淮北",
        "lon": 116.77,
        "lat": 33.97,
        "lon_delta": 0,
        "lat_delta": 0
    },
    {
        "name": "安徽濉溪",
        "lon": 116.76,
        "lat": 33.92,
        "lon_delta": 0,
        "lat_delta": 0
    },
    {
        "name": "安徽芜湖",
        "lon": 118.38,
        "lat": 31.33,
        "lon_delta": 0,
        "lat_delta": 0
    },
    {
        "name": "安徽铜陵",
        "lon": 117.82,
        "lat": 30.93,
        "lon_delta": 0,
        "lat_delta": 0
    },
    {
        "name": "安徽蚌埠",
        "lon": 117.34,
        "lat": 32.93,
        "lon_delta": 0,
        "lat_delta": 0
    },
    {
        "name": "安徽马鞍山",
        "lon": 118.48,
        "lat": 31.56,
        "lon_delta": 0,
        "lat_delta": 0
    },
    {
        "name": "安徽安庆",
        "lon": 117.03,
        "lat": 30.52,
        "lon_delta": 0,
        "lat_delta": 0
    },
    {
        "name": "安徽宿州",
        "lon": 116.97,
        "lat": 33.63,
        "lon_delta": 0,
        "lat_delta": 0
    },
    {
        "name": "安徽宿县",
        "lon": 116.97,
        "lat": 33.63,
        "lon_delta": 0,
        "lat_delta": 0
    },
    {
        "name": "安徽砀山",
        "lon": 116.34,
        "lat": 34.42,
        "lon_delta": 0,
        "lat_delta": 0
    },
    {
        "name": "安徽萧县",
        "lon": 116.93,
        "lat": 34.19,
        "lon_delta": 0,
        "lat_delta": 0
    },
    {
        "name": "安徽吴壁",
        "lon": 117.55,
        "lat": 33.55,
        "lon_delta": 0,
        "lat_delta": 0
    },
    {
        "name": "安徽泗县",
        "lon": 117.89,
        "lat": 33.49,
        "lon_delta": 0,
        "lat_delta": 0
    },
    {
        "name": "安徽五河",
        "lon": 117.87,
        "lat": 33.14,
        "lon_delta": 0,
        "lat_delta": 0
    },
    {
        "name": "安徽固镇",
        "lon": 117.32,
        "lat": 33.33,
        "lon_delta": 0,
        "lat_delta": 0
    },
    {
        "name": "安徽怀远",
        "lon": 117.19,
        "lat": 32.95,
        "lon_delta": 0,
        "lat_delta": 0
    },
    {
        "name": "安徽滁州",
        "lon": 118.31,
        "lat": 32.33,
        "lon_delta": 0,
        "lat_delta": 0
    },
    {
        "name": "安徽嘉山",
        "lon": 117.98,
        "lat": 32.78,
        "lon_delta": 0,
        "lat_delta": 0
    },
    {
        "name": "安徽天长",
        "lon": 119.0,
        "lat": 32.68,
        "lon_delta": 0,
        "lat_delta": 0
    },
    {
        "name": "安徽来安",
        "lon": 118.44,
        "lat": 32.44,
        "lon_delta": 0,
        "lat_delta": 0
    },
    {
        "name": "安徽全椒",
        "lon": 118.27,
        "lat": 32.1,
        "lon_delta": 0,
        "lat_delta": 0
    },
    {
        "name": "安徽定远",
        "lon": 117.68,
        "lat": 32.52,
        "lon_delta": 0,
        "lat_delta": 0
    },
    {
        "name": "安徽凤阳",
        "lon": 117.4,
        "lat": 32.86,
        "lon_delta": 0,
        "lat_delta": 0
    },
    {
        "name": "安徽巢湖",
        "lon": 117.87,
        "lat": 31.62,
        "lon_delta": 0,
        "lat_delta": 0
    },
    {
        "name": "安徽巢县",
        "lon": 117.87,
        "lat": 31.62,
        "lon_delta": 0,
        "lat_delta": 0
    },
    {
        "name": "安徽肥东",
        "lon": 117.47,
        "lat": 31.89,
        "lon_delta": 0,
        "lat_delta": 0
    },
    {
        "name": "安徽含山",
        "lon": 118.11,
        "lat": 31.7,
        "lon_delta": 0,
        "lat_delta": 0
    },
    {
        "name": "安徽和县",
        "lon": 118.37,
        "lat": 31.7,
        "lon_delta": 0,
        "lat_delta": 0
    },
    {
        "name": "安徽无为",
        "lon": 117.75,
        "lat": 31.3,
        "lon_delta": 0,
        "lat_delta": 0
    },
    {
        "name": "安徽卢江",
        "lon": 117.29,
        "lat": 31.23,
        "lon_delta": 0,
        "lat_delta": 0
    },
    {
        "name": "安徽宣城",
        "lon": 118.73,
        "lat": 31.95,
        "lon_delta": 0,
        "lat_delta": 0
    },
    {
        "name": "安徽当涂",
        "lon": 118.49,
        "lat": 31.55,
        "lon_delta": 0,
        "lat_delta": 0
    },
    {
        "name": "安徽郎溪",
        "lon": 119.17,
        "lat": 31.14,
        "lon_delta": 0,
        "lat_delta": 0
    },
    {
        "name": "安徽广德",
        "lon": 119.41,
        "lat": 30.89,
        "lon_delta": 0,
        "lat_delta": 0
    },
    {
        "name": "安徽泾县",
        "lon": 118.41,
        "lat": 30.68,
        "lon_delta": 0,
        "lat_delta": 0
    },
    {
        "name": "安徽南陵",
        "lon": 118.32,
        "lat": 30.91,
        "lon_delta": 0,
        "lat_delta": 0
    },
    {
        "name": "安徽繁昌",
        "lon": 118.21,
        "lat": 31.07,
        "lon_delta": 0,
        "lat_delta": 0
    },
    {
        "name": "安徽宁国",
        "lon": 118.95,
        "lat": 30.62,
        "lon_delta": 0,
        "lat_delta": 0
    },
    {
        "name": "安徽青阳",
        "lon": 117.84,
        "lat": 30.64,
        "lon_delta": 0,
        "lat_delta": 0
    },
    {
        "name": "安徽屯溪",
        "lon": 118.31,
        "lat": 29.72,
        "lon_delta": 0,
        "lat_delta": 0
    },
    {
        "name": "安徽休宁",
        "lon": 118.19,
        "lat": 29.81,
        "lon_delta": 0,
        "lat_delta": 0
    },
    {
        "name": "安徽旌得",
        "lon": 118.53,
        "lat": 30.28,
        "lon_delta": 0,
        "lat_delta": 0
    },
    {
        "name": "安徽绩溪",
        "lon": 118.57,
        "lat": 30.07,
        "lon_delta": 0,
        "lat_delta": 0
    },
    {
        "name": "安徽歙县",
        "lon": 118.44,
        "lat": 29.88,
        "lon_delta": 0,
        "lat_delta": 0
    },
    {
        "name": "安徽祁门",
        "lon": 117.7,
        "lat": 29.86,
        "lon_delta": 0,
        "lat_delta": 0
    },
    {
        "name": "安徽黟县",
        "lon": 117.92,
        "lat": 29.93,
        "lon_delta": 0,
        "lat_delta": 0
    },
    {
        "name": "安徽太平",
        "lon": 118.13,
        "lat": 30.28,
        "lon_delta": 0,
        "lat_delta": 0
    },
    {
        "name": "安徽石台",
        "lon": 117.48,
        "lat": 30.19,
        "lon_delta": 0,
        "lat_delta": 0
    },
    {
        "name": "安徽桐城",
        "lon": 116.94,
        "lat": 31.04,
        "lon_delta": 0,
        "lat_delta": 0
    },
    {
        "name": "安徽纵阳",
        "lon": 117.21,
        "lat": 30.69,
        "lon_delta": 0,
        "lat_delta": 0
    },
    {
        "name": "安徽怀宁",
        "lon": 116.63,
        "lat": 30.41,
        "lon_delta": 0,
        "lat_delta": 0
    },
    {
        "name": "安徽望江",
        "lon": 116.69,
        "lat": 30.12,
        "lon_delta": 0,
        "lat_delta": 0
    },
    {
        "name": "安徽宿松",
        "lon": 116.13,
        "lat": 30.15,
        "lon_delta": 0,
        "lat_delta": 0
    },
    {
        "name": "安徽太湖",
        "lon": 116.27,
        "lat": 30.42,
        "lon_delta": 0,
        "lat_delta": 0
    },
    {
        "name": "安徽岳西",
        "lon": 116.36,
        "lat": 30.84,
        "lon_delta": 0,
        "lat_delta": 0
    },
    {
        "name": "安徽潜山",
        "lon": 116.53,
        "lat": 30.62,
        "lon_delta": 0,
        "lat_delta": 0
    },
    {
        "name": "安徽东至",
        "lon": 116.99,
        "lat": 30.08,
        "lon_delta": 0,
        "lat_delta": 0
    },
    {
        "name": "安徽贵池",
        "lon": 117.48,
        "lat": 30.66,
        "lon_delta": 0,
        "lat_delta": 0
    },
    {
        "name": "安徽六安",
        "lon": 116.49,
        "lat": 31.73,
        "lon_delta": 0,
        "lat_delta": 0
    },
    {
        "name": "安徽霍丘",
        "lon": 116.27,
        "lat": 32.32,
        "lon_delta": 0,
        "lat_delta": 0
    },
    {
        "name": "安徽寿县",
        "lon": 116.78,
        "lat": 32.57,
        "lon_delta": 0,
        "lat_delta": 0
    },
    {
        "name": "安徽肥西",
        "lon": 117.15,
        "lat": 31.7,
        "lon_delta": 0,
        "lat_delta": 0
    },
    {
        "name": "安徽舒城",
        "lon": 116.94,
        "lat": 31.45,
        "lon_delta": 0,
        "lat_delta": 0
    },
    {
        "name": "安徽霍山",
        "lon": 116.32,
        "lat": 31.38,
        "lon_delta": 0,
        "lat_delta": 0
    },
    {
        "name": "安徽金寨",
        "lon": 115.87,
        "lat": 31.67,
        "lon_delta": 0,
        "lat_delta": 0
    },
    {
        "name": "安徽阜阳",
        "lon": 115.81,
        "lat": 32.89,
        "lon_delta": 0,
        "lat_delta": 0
    },
    {
        "name": "安徽毫县",
        "lon": 116.76,
        "lat": 33.86,
        "lon_delta": 0,
        "lat_delta": 0
    },
    {
        "name": "安徽涡阳",
        "lon": 116.21,
        "lat": 33.49,
        "lon_delta": 0,
        "lat_delta": 0
    },
    {
        "name": "安徽蒙城",
        "lon": 116.55,
        "lat": 33.25,
        "lon_delta": 0,
        "lat_delta": 0
    },
    {
        "name": "安徽利辛",
        "lon": 116.19,
        "lat": 33.12,
        "lon_delta": 0,
        "lat_delta": 0
    },
    {
        "name": "安徽颖上",
        "lon": 116.26,
        "lat": 32.62,
        "lon_delta": 0,
        "lat_delta": 0
    },
    {
        "name": "安徽阜南",
        "lon": 115.6,
        "lat": 32.63,
        "lon_delta": 0,
        "lat_delta": 0
    },
    {
        "name": "安徽临泉",
        "lon": 115.24,
        "lat": 33.06,
        "lon_delta": 0,
        "lat_delta": 0
    },
    {
        "name": "安徽界首",
        "lon": 115.34,
        "lat": 33.24,
        "lon_delta": 0,
        "lat_delta": 0
    },
    {
        "name": "安徽太和",
        "lon": 115.61,
        "lat": 33.16,
        "lon_delta": 0,
        "lat_delta": 0
    },
    {
        "name": "山东济南",
        "lon": 117.0,
        "lat": 36.65,
        "lon_delta": 0,
        "lat_delta": 0
    },
    {
        "name": "山东历城",
        "lon": 117.07,
        "lat": 36.69,
        "lon_delta": 0,
        "lat_delta": 0
    },
    {
        "name": "山东长清",
        "lon": 116.73,
        "lat": 36.55,
        "lon_delta": 0,
        "lat_delta": 0
    },
    {
        "name": "山东章丘",
        "lon": 117.53,
        "lat": 36.72,
        "lon_delta": 0,
        "lat_delta": 0
    },
    {
        "name": "山东青岛",
        "lon": 120.33,
        "lat": 36.07,
        "lon_delta": 0,
        "lat_delta": 0
    },
    {
        "name": "山东崂山",
        "lon": 120.42,
        "lat": 36.15,
        "lon_delta": 0,
        "lat_delta": 0
    },
    {
        "name": "山东胶南",
        "lon": 119.97,
        "lat": 35.88,
        "lon_delta": 0,
        "lat_delta": 0
    },
    {
        "name": "山东即墨",
        "lon": 120.45,
        "lat": 36.38,
        "lon_delta": 0,
        "lat_delta": 0
    },
    {
        "name": "山东胶县",
        "lon": 120.0,
        "lat": 36.28,
        "lon_delta": 0,
        "lat_delta": 0
    },
    {
        "name": "山东淄博",
        "lon": 118.05,
        "lat": 36.78,
        "lon_delta": 0,
        "lat_delta": 0
    },
    {
        "name": "山东枣庄",
        "lon": 117.57,
        "lat": 34.86,
        "lon_delta": 0,
        "lat_delta": 0
    },
    {
        "name": "山东滕县",
        "lon": 117.17,
        "lat": 35.09,
        "lon_delta": 0,
        "lat_delta": 0
    },
    {
        "name": "山东东营",
        "lon": 118.49,
        "lat": 37.46,
        "lon_delta": 0,
        "lat_delta": 0
    },
    {
        "name": "山东垦利",
        "lon": 118.54,
        "lat": 37.59,
        "lon_delta": 0,
        "lat_delta": 0
    },
    {
        "name": "山东利津",
        "lon": 118.25,
        "lat": 37.49,
        "lon_delta": 0,
        "lat_delta": 0
    },
    {
        "name": "山东德州",
        "lon": 116.29,
        "lat": 37.45,
        "lon_delta": 0,
        "lat_delta": 0
    },
    {
        "name": "山东宁津",
        "lon": 116.8,
        "lat": 37.64,
        "lon_delta": 0,
        "lat_delta": 0
    },
    {
        "name": "山东乐陵",
        "lon": 117.22,
        "lat": 37.74,
        "lon_delta": 0,
        "lat_delta": 0
    },
    {
        "name": "山东商河",
        "lon": 117.15,
        "lat": 37.31,
        "lon_delta": 0,
        "lat_delta": 0
    },
    {
        "name": "山东济阳",
        "lon": 117.2,
        "lat": 36.97,
        "lon_delta": 0,
        "lat_delta": 0
    },
    {
        "name": "山东禹城",
        "lon": 116.66,
        "lat": 36.95,
        "lon_delta": 0,
        "lat_delta": 0
    },
    {
        "name": "山东夏津",
        "lon": 116.0,
        "lat": 36.95,
        "lon_delta": 0,
        "lat_delta": 0
    },
    {
        "name": "山东陵县",
        "lon": 116.58,
        "lat": 37.34,
        "lon_delta": 0,
        "lat_delta": 0
    },
    {
        "name": "山东庆云",
        "lon": 117.37,
        "lat": 37.37,
        "lon_delta": 0,
        "lat_delta": 0
    },
    {
        "name": "山东临邑",
        "lon": 116.86,
        "lat": 37.2,
        "lon_delta": 0,
        "lat_delta": 0
    },
    {
        "name": "山东齐河",
        "lon": 116.76,
        "lat": 36.79,
        "lon_delta": 0,
        "lat_delta": 0
    },
    {
        "name": "山东平原",
        "lon": 116.44,
        "lat": 37.16,
        "lon_delta": 0,
        "lat_delta": 0
    },
    {
        "name": "山东武城",
        "lon": 116.08,
        "lat": 37.2,
        "lon_delta": 0,
        "lat_delta": 0
    },
    {
        "name": "山东滨州",
        "lon": 118.03,
        "lat": 37.36,
        "lon_delta": 0,
        "lat_delta": 0
    },
    {
        "name": "山东滨县",
        "lon": 117.97,
        "lat": 37.47,
        "lon_delta": 0,
        "lat_delta": 0
    },
    {
        "name": "山东广饶",
        "lon": 118.41,
        "lat": 37.04,
        "lon_delta": 0,
        "lat_delta": 0
    },
    {
        "name": "山东桓台",
        "lon": 118.12,
        "lat": 36.95,
        "lon_delta": 0,
        "lat_delta": 0
    },
    {
        "name": "山东邹平",
        "lon": 117.75,
        "lat": 36.89,
        "lon_delta": 0,
        "lat_delta": 0
    },
    {
        "name": "山东阳信",
        "lon": 117.58,
        "lat": 37.65,
        "lon_delta": 0,
        "lat_delta": 0
    },
    {
        "name": "山东沾化",
        "lon": 118.14,
        "lat": 37.7,
        "lon_delta": 0,
        "lat_delta": 0
    },
    {
        "name": "山东博兴",
        "lon": 118.12,
        "lat": 37.12,
        "lon_delta": 0,
        "lat_delta": 0
    },
    {
        "name": "山东高青",
        "lon": 117.66,
        "lat": 37.18,
        "lon_delta": 0,
        "lat_delta": 0
    },
    {
        "name": "山东惠民",
        "lon": 117.51,
        "lat": 17.49,
        "lon_delta": 0,
        "lat_delta": 0
    },
    {
        "name": "山东无棣",
        "lon": 117.58,
        "lat": 37.73,
        "lon_delta": 0,
        "lat_delta": 0
    },
    {
        "name": "山东潍坊",
        "lon": 119.1,
        "lat": 36.62,
        "lon_delta": 0,
        "lat_delta": 0
    },
    {
        "name": "山东潍县",
        "lon": 119.22,
        "lat": 36.77,
        "lon_delta": 0,
        "lat_delta": 0
    },
    {
        "name": "山东平度",
        "lon": 119.97,
        "lat": 36.77,
        "lon_delta": 0,
        "lat_delta": 0
    },
    {
        "name": "山东诸城",
        "lon": 119.42,
        "lat": 35.99,
        "lon_delta": 0,
        "lat_delta": 0
    },
    {
        "name": "山东安丘",
        "lon": 119.2,
        "lat": 36.42,
        "lon_delta": 0,
        "lat_delta": 0
    },
    {
        "name": "山东临朐",
        "lon": 118.53,
        "lat": 36.5,
        "lon_delta": 0,
        "lat_delta": 0
    },
    {
        "name": "山东寿光",
        "lon": 118.73,
        "lat": 36.86,
        "lon_delta": 0,
        "lat_delta": 0
    },
    {
        "name": "山东昌邑",
        "lon": 119.41,
        "lat": 36.86,
        "lon_delta": 0,
        "lat_delta": 0
    },
    {
        "name": "山东高密",
        "lon": 119.75,
        "lat": 36.38,
        "lon_delta": 0,
        "lat_delta": 0
    },
    {
        "name": "山东五莲",
        "lon": 119.2,
        "lat": 35.74,
        "lon_delta": 0,
        "lat_delta": 0
    },
    {
        "name": "山东昌乐",
        "lon": 118.83,
        "lat": 36.69,
        "lon_delta": 0,
        "lat_delta": 0
    },
    {
        "name": "山东高都",
        "lon": 118.47,
        "lat": 36.69,
        "lon_delta": 0,
        "lat_delta": 0
    },
    {
        "name": "山东烟台",
        "lon": 121.39,
        "lat": 37.52,
        "lon_delta": 0,
        "lat_delta": 0
    },
    {
        "name": "山东牟平",
        "lon": 121.59,
        "lat": 37.38,
        "lon_delta": 0,
        "lat_delta": 0
    },
    {
        "name": "山东文登",
        "lon": 122.05,
        "lat": 37.2,
        "lon_delta": 0,
        "lat_delta": 0
    },
    {
        "name": "山东海阳",
        "lon": 121.17,
        "lat": 36.76,
        "lon_delta": 0,
        "lat_delta": 0
    },
    {
        "name": "山东莱阳",
        "lon": 120.71,
        "lat": 36.97,
        "lon_delta": 0,
        "lat_delta": 0
    },
    {
        "name": "山东栖霞",
        "lon": 120.83,
        "lat": 37.28,
        "lon_delta": 0,
        "lat_delta": 0
    },
    {
        "name": "山东掖县",
        "lon": 119.93,
        "lat": 37.18,
        "lon_delta": 0,
        "lat_delta": 0
    },
    {
        "name": "山东长岛",
        "lon": 120.73,
        "lat": 37.91,
        "lon_delta": 0,
        "lat_delta": 0
    },
    {
        "name": "山东威海",
        "lon": 122.1,
        "lat": 37.5,
        "lon_delta": 0,
        "lat_delta": 0
    },
    {
        "name": "山东福山",
        "lon": 121.27,
        "lat": 37.49,
        "lon_delta": 0,
        "lat_delta": 0
    },
    {
        "name": "山东荣成",
        "lon": 122.41,
        "lat": 37.16,
        "lon_delta": 0,
        "lat_delta": 0
    },
    {
        "name": "山东乳山",
        "lon": 121.52,
        "lat": 36.89,
        "lon_delta": 0,
        "lat_delta": 0
    },
    {
        "name": "山东莱西",
        "lon": 120.53,
        "lat": 36.86,
        "lon_delta": 0,
        "lat_delta": 0
    },
    {
        "name": "山东招远",
        "lon": 120.38,
        "lat": 37.35,
        "lon_delta": 0,
        "lat_delta": 0
    },
    {
        "name": "山东黄县",
        "lon": 120.51,
        "lat": 37.64,
        "lon_delta": 0,
        "lat_delta": 0
    },
    {
        "name": "山东蓬莱",
        "lon": 120.75,
        "lat": 37.8,
        "lon_delta": 0,
        "lat_delta": 0
    },
    {
        "name": "山东临沂",
        "lon": 118.35,
        "lat": 35.05,
        "lon_delta": 0,
        "lat_delta": 0
    },
    {
        "name": "山东沂水",
        "lon": 118.64,
        "lat": 35.78,
        "lon_delta": 0,
        "lat_delta": 0
    },
    {
        "name": "山东日照",
        "lon": 119.46,
        "lat": 35.42,
        "lon_delta": 0,
        "lat_delta": 0
    },
    {
        "name": "山东临沭",
        "lon": 118.73,
        "lat": 34.89,
        "lon_delta": 0,
        "lat_delta": 0
    },
    {
        "name": "山东仓山",
        "lon": 118.03,
        "lat": 34.84,
        "lon_delta": 0,
        "lat_delta": 0
    },
    {
        "name": "山东平邑",
        "lon": 117.63,
        "lat": 35.49,
        "lon_delta": 0,
        "lat_delta": 0
    },
    {
        "name": "山东沂源",
        "lon": 118.17,
        "lat": 36.18,
        "lon_delta": 0,
        "lat_delta": 0
    },
    {
        "name": "山东沂南",
        "lon": 118.47,
        "lat": 35.54,
        "lon_delta": 0,
        "lat_delta": 0
    },
    {
        "name": "山东营县",
        "lon": 118.83,
        "lat": 35.57,
        "lon_delta": 0,
        "lat_delta": 0
    },
    {
        "name": "山东莒南",
        "lon": 118.83,
        "lat": 35.17,
        "lon_delta": 0,
        "lat_delta": 0
    },
    {
        "name": "山东郯城",
        "lon": 118.35,
        "lat": 34.61,
        "lon_delta": 0,
        "lat_delta": 0
    },
    {
        "name": "山东费县",
        "lon": 117.97,
        "lat": 35.26,
        "lon_delta": 0,
        "lat_delta": 0
    },
    {
        "name": "山东蒙阴",
        "lon": 117.95,
        "lat": 35.7,
        "lon_delta": 0,
        "lat_delta": 0
    },
    {
        "name": "山东泰安",
        "lon": 117.13,
        "lat": 36.18,
        "lon_delta": 0,
        "lat_delta": 0
    },
    {
        "name": "山东莱芜",
        "lon": 117.67,
        "lat": 36.19,
        "lon_delta": 0,
        "lat_delta": 0
    },
    {
        "name": "山东肥城",
        "lon": 116.76,
        "lat": 36.24,
        "lon_delta": 0,
        "lat_delta": 0
    },
    {
        "name": "山东平阴",
        "lon": 116.46,
        "lat": 36.29,
        "lon_delta": 0,
        "lat_delta": 0
    },
    {
        "name": "山东新汶",
        "lon": 117.67,
        "lat": 35.86,
        "lon_delta": 0,
        "lat_delta": 0
    },
    {
        "name": "山东新泰",
        "lon": 117.76,
        "lat": 35.91,
        "lon_delta": 0,
        "lat_delta": 0
    },
    {
        "name": "山东宁阳",
        "lon": 116.8,
        "lat": 35.76,
        "lon_delta": 0,
        "lat_delta": 0
    },
    {
        "name": "山东东平",
        "lon": 116.3,
        "lat": 35.91,
        "lon_delta": 0,
        "lat_delta": 0
    },
    {
        "name": "山东济宁",
        "lon": 116.59,
        "lat": 35.38,
        "lon_delta": 0,
        "lat_delta": 0
    },
    {
        "name": "山东兖州",
        "lon": 116.83,
        "lat": 35.54,
        "lon_delta": 0,
        "lat_delta": 0
    },
    {
        "name": "山东泗水",
        "lon": 117.27,
        "lat": 35.65,
        "lon_delta": 0,
        "lat_delta": 0
    },
    {
        "name": "山东鱼台",
        "lon": 116.65,
        "lat": 35.0,
        "lon_delta": 0,
        "lat_delta": 0
    },
    {
        "name": "山东嘉祥",
        "lon": 116.34,
        "lat": 35.41,
        "lon_delta": 0,
        "lat_delta": 0
    },
    {
        "name": "山东汶上",
        "lon": 116.49,
        "lat": 35.71,
        "lon_delta": 0,
        "lat_delta": 0
    },
    {
        "name": "山东曲阜",
        "lon": 116.98,
        "lat": 35.59,
        "lon_delta": 0,
        "lat_delta": 0
    },
    {
        "name": "山东邹县",
        "lon": 116.97,
        "lat": 35.39,
        "lon_delta": 0,
        "lat_delta": 0
    },
    {
        "name": "山东微山",
        "lon": 117.12,
        "lat": 34.8,
        "lon_delta": 0,
        "lat_delta": 0
    },
    {
        "name": "山东金乡",
        "lon": 116.32,
        "lat": 35.07,
        "lon_delta": 0,
        "lat_delta": 0
    },
    {
        "name": "山东荷泽",
        "lon": 115.43,
        "lat": 35.24,
        "lon_delta": 0,
        "lat_delta": 0
    },
    {
        "name": "山东郓城",
        "lon": 115.94,
        "lat": 35.59,
        "lon_delta": 0,
        "lat_delta": 0
    },
    {
        "name": "山东巨野",
        "lon": 116.08,
        "lat": 35.38,
        "lon_delta": 0,
        "lat_delta": 0
    },
    {
        "name": "山东单县",
        "lon": 116.07,
        "lat": 34.82,
        "lon_delta": 0,
        "lat_delta": 0
    },
    {
        "name": "山东曹县",
        "lon": 115.53,
        "lat": 34.83,
        "lon_delta": 0,
        "lat_delta": 0
    },
    {
        "name": "山东鄄城",
        "lon": 115.5,
        "lat": 35.57,
        "lon_delta": 0,
        "lat_delta": 0
    },
    {
        "name": "山东梁山",
        "lon": 116.1,
        "lat": 35.8,
        "lon_delta": 0,
        "lat_delta": 0
    },
    {
        "name": "山东成武",
        "lon": 115.88,
        "lat": 34.97,
        "lon_delta": 0,
        "lat_delta": 0
    },
    {
        "name": "山东定陶",
        "lon": 115.57,
        "lat": 35.07,
        "lon_delta": 0,
        "lat_delta": 0
    },
    {
        "name": "山东东明",
        "lon": 115.08,
        "lat": 35.31,
        "lon_delta": 0,
        "lat_delta": 0
    },
    {
        "name": "山东聊城",
        "lon": 115.97,
        "lat": 36.45,
        "lon_delta": 0,
        "lat_delta": 0
    },
    {
        "name": "山东高唐",
        "lon": 116.23,
        "lat": 36.86,
        "lon_delta": 0,
        "lat_delta": 0
    },
    {
        "name": "山东东阿",
        "lon": 116.23,
        "lat": 36.32,
        "lon_delta": 0,
        "lat_delta": 0
    },
    {
        "name": "山东莘县",
        "lon": 115.67,
        "lat": 36.24,
        "lon_delta": 0,
        "lat_delta": 0
    },
    {
        "name": "山东临清",
        "lon": 115.72,
        "lat": 36.68,
        "lon_delta": 0,
        "lat_delta": 0
    },
    {
        "name": "山东茌平",
        "lon": 116.27,
        "lat": 36.58,
        "lon_delta": 0,
        "lat_delta": 0
    },
    {
        "name": "山东阳谷",
        "lon": 115.78,
        "lat": 36.11,
        "lon_delta": 0,
        "lat_delta": 0
    },
    {
        "name": "山东冠县",
        "lon": 115.45,
        "lat": 35.47,
        "lon_delta": 0,
        "lat_delta": 0
    },
    {
        "name": "山西太原",
        "lon": 112.53,
        "lat": 37.87,
        "lon_delta": 0,
        "lat_delta": 0
    },
    {
        "name": "山西阳曲",
        "lon": 112.65,
        "lat": 38.05,
        "lon_delta": 0,
        "lat_delta": 0
    },
    {
        "name": "山西娄烦",
        "lon": 111.78,
        "lat": 38.05,
        "lon_delta": 0,
        "lat_delta": 0
    },
    {
        "name": "山西清徐",
        "lon": 112.33,
        "lat": 37.62,
        "lon_delta": 0,
        "lat_delta": 0
    },
    {
        "name": "山西大同",
        "lon": 113.3,
        "lat": 40.12,
        "lon_delta": 0,
        "lat_delta": 0
    },
    {
        "name": "山西阳泉",
        "lon": 113.57,
        "lat": 37.85,
        "lon_delta": 0,
        "lat_delta": 0
    },
    {
        "name": "山西长治",
        "lon": 113.08,
        "lat": 36.18,
        "lon_delta": 0,
        "lat_delta": 0
    },
    {
        "name": "山西天镇",
        "lon": 114.08,
        "lat": 40.42,
        "lon_delta": 0,
        "lat_delta": 0
    },
    {
        "name": "山西灵丘",
        "lon": 114.2,
        "lat": 39.47,
        "lon_delta": 0,
        "lat_delta": 0
    },
    {
        "name": "山西怀仁",
        "lon": 113.1,
        "lat": 39.82,
        "lon_delta": 0,
        "lat_delta": 0
    },
    {
        "name": "山西山阴",
        "lon": 112.82,
        "lat": 39.52,
        "lon_delta": 0,
        "lat_delta": 0
    },
    {
        "name": "山西平鲁",
        "lon": 112.12,
        "lat": 39.53,
        "lon_delta": 0,
        "lat_delta": 0
    },
    {
        "name": "山西右玉",
        "lon": 112.33,
        "lat": 40.18,
        "lon_delta": 0,
        "lat_delta": 0
    },
    {
        "name": "山西阳高",
        "lon": 113.72,
        "lat": 40.38,
        "lon_delta": 0,
        "lat_delta": 0
    },
    {
        "name": "山西广灵",
        "lon": 113.27,
        "lat": 39.75,
        "lon_delta": 0,
        "lat_delta": 0
    },
    {
        "name": "山西浑源",
        "lon": 113.68,
        "lat": 39.7,
        "lon_delta": 0,
        "lat_delta": 0
    },
    {
        "name": "山西应县",
        "lon": 113.18,
        "lat": 39.58,
        "lon_delta": 0,
        "lat_delta": 0
    },
    {
        "name": "山西朔县",
        "lon": 112.42,
        "lat": 39.32,
        "lon_delta": 0,
        "lat_delta": 0
    },
    {
        "name": "山西左云",
        "lon": 112.67,
        "lat": 40.02,
        "lon_delta": 0,
        "lat_delta": 0
    },
    {
        "name": "山西忻县",
        "lon": 112.7,
        "lat": 38.38,
        "lon_delta": 0,
        "lat_delta": 0
    },
    {
        "name": "山西代县",
        "lon": 112.97,
        "lat": 39.07,
        "lon_delta": 0,
        "lat_delta": 0
    },
    {
        "name": "山西五台",
        "lon": 113.32,
        "lat": 38.72,
        "lon_delta": 0,
        "lat_delta": 0
    },
    {
        "name": "山西静乐",
        "lon": 111.9,
        "lat": 38.37,
        "lon_delta": 0,
        "lat_delta": 0
    },
    {
        "name": "山西保德",
        "lon": 111.09,
        "lat": 38.01,
        "lon_delta": 0,
        "lat_delta": 0
    },
    {
        "name": "山西河曲",
        "lon": 111.17,
        "lat": 39.38,
        "lon_delta": 0,
        "lat_delta": 0
    },
    {
        "name": "山西神池",
        "lon": 112.17,
        "lat": 39.1,
        "lon_delta": 0,
        "lat_delta": 0
    },
    {
        "name": "山西原平",
        "lon": 112.7,
        "lat": 38.73,
        "lon_delta": 0,
        "lat_delta": 0
    },
    {
        "name": "山西繁峙",
        "lon": 113.28,
        "lat": 39.2,
        "lon_delta": 0,
        "lat_delta": 0
    },
    {
        "name": "山西定襄",
        "lon": 112.95,
        "lat": 38.5,
        "lon_delta": 0,
        "lat_delta": 0
    },
    {
        "name": "山西岢岚",
        "lon": 111.58,
        "lat": 38.7,
        "lon_delta": 0,
        "lat_delta": 0
    },
    {
        "name": "山西五寨",
        "lon": 111.82,
        "lat": 38.93,
        "lon_delta": 0,
        "lat_delta": 0
    },
    {
        "name": "山西偏关",
        "lon": 111.47,
        "lat": 39.45,
        "lon_delta": 0,
        "lat_delta": 0
    },
    {
        "name": "山西宁武",
        "lon": 112.28,
        "lat": 39.0,
        "lon_delta": 0,
        "lat_delta": 0
    },
    {
        "name": "山西榆次",
        "lon": 112.72,
        "lat": 37.68,
        "lon_delta": 0,
        "lat_delta": 0
    },
    {
        "name": "山西孟县",
        "lon": 113.37,
        "lat": 38.01,
        "lon_delta": 0,
        "lat_delta": 0
    },
    {
        "name": "山西昔阳",
        "lon": 113.68,
        "lat": 37.62,
        "lon_delta": 0,
        "lat_delta": 0
    },
    {
        "name": "山西左权",
        "lon": 113.35,
        "lat": 37.07,
        "lon_delta": 0,
        "lat_delta": 0
    },
    {
        "name": "山西太谷",
        "lon": 112.53,
        "lat": 37.42,
        "lon_delta": 0,
        "lat_delta": 0
    },
    {
        "name": "山西平遥",
        "lon": 112.18,
        "lat": 37.2,
        "lon_delta": 0,
        "lat_delta": 0
    },
    {
        "name": "山西灵石",
        "lon": 111.77,
        "lat": 36.83,
        "lon_delta": 0,
        "lat_delta": 0
    },
    {
        "name": "山西寿阳",
        "lon": 113.17,
        "lat": 37.88,
        "lon_delta": 0,
        "lat_delta": 0
    },
    {
        "name": "山西平定",
        "lon": 113.62,
        "lat": 37.79,
        "lon_delta": 0,
        "lat_delta": 0
    },
    {
        "name": "山西和顺",
        "lon": 113.55,
        "lat": 37.33,
        "lon_delta": 0,
        "lat_delta": 0
    },
    {
        "name": "山西榆社",
        "lon": 112.97,
        "lat": 37.08,
        "lon_delta": 0,
        "lat_delta": 0
    },
    {
        "name": "山西祁县",
        "lon": 112.33,
        "lat": 37.36,
        "lon_delta": 0,
        "lat_delta": 0
    },
    {
        "name": "山西介休",
        "lon": 111.88,
        "lat": 37.03,
        "lon_delta": 0,
        "lat_delta": 0
    },
    {
        "name": "山西离石",
        "lon": 111.13,
        "lat": 37.53,
        "lon_delta": 0,
        "lat_delta": 0
    },
    {
        "name": "山西兴县",
        "lon": 111.22,
        "lat": 38.47,
        "lon_delta": 0,
        "lat_delta": 0
    },
    {
        "name": "山西方由",
        "lon": 111.24,
        "lat": 37.86,
        "lon_delta": 0,
        "lat_delta": 0
    },
    {
        "name": "山西岚县",
        "lon": 111.62,
        "lat": 38.28,
        "lon_delta": 0,
        "lat_delta": 0
    },
    {
        "name": "山西交城",
        "lon": 112.14,
        "lat": 37.55,
        "lon_delta": 0,
        "lat_delta": 0
    },
    {
        "name": "山西文水",
        "lon": 112.02,
        "lat": 37.42,
        "lon_delta": 0,
        "lat_delta": 0
    },
    {
        "name": "山西汾阳",
        "lon": 111.75,
        "lat": 37.27,
        "lon_delta": 0,
        "lat_delta": 0
    },
    {
        "name": "山西孝义",
        "lon": 111.8,
        "lat": 37.12,
        "lon_delta": 0,
        "lat_delta": 0
    },
    {
        "name": "山西交口",
        "lon": 111.2,
        "lat": 36.97,
        "lon_delta": 0,
        "lat_delta": 0
    },
    {
        "name": "山西石楼",
        "lon": 110.83,
        "lat": 37.0,
        "lon_delta": 0,
        "lat_delta": 0
    },
    {
        "name": "山西中阳",
        "lon": 111.17,
        "lat": 37.37,
        "lon_delta": 0,
        "lat_delta": 0
    },
    {
        "name": "山西临县",
        "lon": 110.95,
        "lat": 37.95,
        "lon_delta": 0,
        "lat_delta": 0
    },
    {
        "name": "山西柳林",
        "lon": 110.85,
        "lat": 37.45,
        "lon_delta": 0,
        "lat_delta": 0
    },
    {
        "name": "山西襄垣",
        "lon": 113.02,
        "lat": 36.55,
        "lon_delta": 0,
        "lat_delta": 0
    },
    {
        "name": "山西黎城",
        "lon": 113.4,
        "lat": 36.56,
        "lon_delta": 0,
        "lat_delta": 0
    },
    {
        "name": "山西壶关",
        "lon": 113.23,
        "lat": 35.11,
        "lon_delta": 0,
        "lat_delta": 0
    },
    {
        "name": "山西高平",
        "lon": 112.88,
        "lat": 35.48,
        "lon_delta": 0,
        "lat_delta": 0
    },
    {
        "name": "山西阳城",
        "lon": 112.38,
        "lat": 35.84,
        "lon_delta": 0,
        "lat_delta": 0
    },
    {
        "name": "山西长子",
        "lon": 112.87,
        "lat": 36.13,
        "lon_delta": 0,
        "lat_delta": 0
    },
    {
        "name": "山西沁源",
        "lon": 112.32,
        "lat": 36.5,
        "lon_delta": 0,
        "lat_delta": 0
    },
    {
        "name": "山西潞城",
        "lon": 113.22,
        "lat": 36.33,
        "lon_delta": 0,
        "lat_delta": 0
    },
    {
        "name": "山西武乡",
        "lon": 112.83,
        "lat": 36.83,
        "lon_delta": 0,
        "lat_delta": 0
    },
    {
        "name": "山西平顺",
        "lon": 113.43,
        "lat": 36.19,
        "lon_delta": 0,
        "lat_delta": 0
    },
    {
        "name": "山西陵川",
        "lon": 113.27,
        "lat": 35.78,
        "lon_delta": 0,
        "lat_delta": 0
    },
    {
        "name": "山西晋城",
        "lon": 112.83,
        "lat": 35.52,
        "lon_delta": 0,
        "lat_delta": 0
    },
    {
        "name": "山西沁水",
        "lon": 112.15,
        "lat": 35.67,
        "lon_delta": 0,
        "lat_delta": 0
    },
    {
        "name": "山西屯留",
        "lon": 112.87,
        "lat": 36.32,
        "lon_delta": 0,
        "lat_delta": 0
    },
    {
        "name": "山西沁县",
        "lon": 112.68,
        "lat": 36.75,
        "lon_delta": 0,
        "lat_delta": 0
    },
    {
        "name": "山西临汾",
        "lon": 111.5,
        "lat": 36.08,
        "lon_delta": 0,
        "lat_delta": 0
    },
    {
        "name": "山西汾西",
        "lon": 111.53,
        "lat": 36.63,
        "lon_delta": 0,
        "lat_delta": 0
    },
    {
        "name": "山西安泽",
        "lon": 112.2,
        "lat": 36.15,
        "lon_delta": 0,
        "lat_delta": 0
    },
    {
        "name": "山西古县",
        "lon": 111.9,
        "lat": 36.29,
        "lon_delta": 0,
        "lat_delta": 0
    },
    {
        "name": "山西翼城",
        "lon": 111.68,
        "lat": 35.73,
        "lon_delta": 0,
        "lat_delta": 0
    },
    {
        "name": "山西曲沃",
        "lon": 111.33,
        "lat": 35.63,
        "lon_delta": 0,
        "lat_delta": 0
    },
    {
        "name": "山西吉县",
        "lon": 110.65,
        "lat": 36.12,
        "lon_delta": 0,
        "lat_delta": 0
    },
    {
        "name": "山西大宁",
        "lon": 110.72,
        "lat": 36.47,
        "lon_delta": 0,
        "lat_delta": 0
    },
    {
        "name": "山西侯马",
        "lon": 111.45,
        "lat": 35.03,
        "lon_delta": 0,
        "lat_delta": 0
    },
    {
        "name": "山西永和",
        "lon": 110.64,
        "lat": 36.62,
        "lon_delta": 0,
        "lat_delta": 0
    },
    {
        "name": "山西洪洞",
        "lon": 111.68,
        "lat": 36.25,
        "lon_delta": 0,
        "lat_delta": 0
    },
    {
        "name": "山西霍县",
        "lon": 111.72,
        "lat": 36.57,
        "lon_delta": 0,
        "lat_delta": 0
    },
    {
        "name": "山西浮山",
        "lon": 111.83,
        "lat": 35.97,
        "lon_delta": 0,
        "lat_delta": 0
    },
    {
        "name": "山西襄汾",
        "lon": 111.43,
        "lat": 35.86,
        "lon_delta": 0,
        "lat_delta": 0
    },
    {
        "name": "山西乡宁",
        "lon": 110.8,
        "lat": 35.97,
        "lon_delta": 0,
        "lat_delta": 0
    },
    {
        "name": "山西蒲县",
        "lon": 111.07,
        "lat": 36.42,
        "lon_delta": 0,
        "lat_delta": 0
    },
    {
        "name": "山西运城",
        "lon": 110.97,
        "lat": 35.03,
        "lon_delta": 0,
        "lat_delta": 0
    },
    {
        "name": "山西闻喜",
        "lon": 111.2,
        "lat": 35.37,
        "lon_delta": 0,
        "lat_delta": 0
    },
    {
        "name": "山西垣曲",
        "lon": 111.63,
        "lat": 35.3,
        "lon_delta": 0,
        "lat_delta": 0
    },
    {
        "name": "山西芮城",
        "lon": 110.68,
        "lat": 34.71,
        "lon_delta": 0,
        "lat_delta": 0
    },
    {
        "name": "山西临猗",
        "lon": 110.78,
        "lat": 35.15,
        "lon_delta": 0,
        "lat_delta": 0
    },
    {
        "name": "山西新绛",
        "lon": 111.22,
        "lat": 35.62,
        "lon_delta": 0,
        "lat_delta": 0
    },
    {
        "name": "山西河津",
        "lon": 110.7,
        "lat": 35.58,
        "lon_delta": 0,
        "lat_delta": 0
    },
    {
        "name": "山西夏县",
        "lon": 111.22,
        "lat": 35.12,
        "lon_delta": 0,
        "lat_delta": 0
    },
    {
        "name": "山西绛县",
        "lon": 111.58,
        "lat": 35.48,
        "lon_delta": 0,
        "lat_delta": 0
    },
    {
        "name": "山西平陆",
        "lon": 111.2,
        "lat": 34.12,
        "lon_delta": 0,
        "lat_delta": 0
    },
    {
        "name": "山西永济",
        "lon": 110.42,
        "lat": 34.88,
        "lon_delta": 0,
        "lat_delta": 0
    },
    {
        "name": "山西万荣",
        "lon": 110.83,
        "lat": 35.42,
        "lon_delta": 0,
        "lat_delta": 0
    },
    {
        "name": "山西稷山",
        "lon": 110.97,
        "lat": 35.6,
        "lon_delta": 0,
        "lat_delta": 0
    },
    {
        "name": "广东广州",
        "lon": 113.23,
        "lat": 23.16,
        "lon_delta": 0,
        "lat_delta": 0
    },
    {
        "name": "广东花县",
        "lon": 113.19,
        "lat": 23.4,
        "lon_delta": 0,
        "lat_delta": 0
    },
    {
        "name": "广东新十",
        "lon": 114.2,
        "lat": 24.09,
        "lon_delta": 0,
        "lat_delta": 0
    },
    {
        "name": "广东增城",
        "lon": 113.81,
        "lat": 23.13,
        "lon_delta": 0,
        "lat_delta": 0
    },
    {
        "name": "广东从化",
        "lon": 113.55,
        "lat": 23.57,
        "lon_delta": 0,
        "lat_delta": 0
    },
    {
        "name": "广东龙门",
        "lon": 114.25,
        "lat": 23.75,
        "lon_delta": 0,
        "lat_delta": 0
    },
    {
        "name": "广东番禺",
        "lon": 113.36,
        "lat": 22.95,
        "lon_delta": 0,
        "lat_delta": 0
    },
    {
        "name": "广东海口",
        "lon": 110.35,
        "lat": 20.02,
        "lon_delta": 0,
        "lat_delta": 0
    },
    {
        "name": "广东汕头",
        "lon": 116.69,
        "lat": 23.39,
        "lon_delta": 0,
        "lat_delta": 0
    },
    {
        "name": "广东洪江",
        "lon": 110.38,
        "lat": 21.2,
        "lon_delta": 0,
        "lat_delta": 0
    },
    {
        "name": "广东茂名",
        "lon": 110.88,
        "lat": 21.68,
        "lon_delta": 0,
        "lat_delta": 0
    },